[
    {
        "geocodigo": 5200050,
        "municipio": "Abadia de Goiás",
        "latitude": -16.7573,
        "longitude": -49.4412,
        "codigo_uf": 52,
        "fuso_horario": "America\/Sao_Paulo"
    },
    {
        "geocodigo": 3100104,
        "municipio": "Abadia dos Dourados",
        "latitude": -18.4831,
        "longitude": -47.3916,
        "codigo_uf": 31,
        "fuso_horario": "America\/Sao_Paulo"
    },
    {
        "geocodigo": 5200100,
        "municipio": "Abadiânia",
        "latitude": -16.197,
        "longitude": -48.7057,
        "codigo_uf": 52,
        "fuso_horario": "America\/Sao_Paulo"
    },
    {
        "geocodigo": 3100203,
        "municipio": "Abaeté",
        "latitude": -19.1551,
        "longitude": -45.4444,
        "codigo_uf": 31,
        "fuso_horario": "America\/Sao_Paulo"
    },
    {
        "geocodigo": 1500107,
        "municipio": "Abaetetuba",
        "latitude": -1.72183,
        "longitude": -48.8788,
        "codigo_uf": 15,
        "fuso_horario": "America\/Sao_Paulo"
    },
    {
        "geocodigo": 2300101,
        "municipio": "Abaiara",
        "latitude": -7.34588,
        "longitude": -39.0416,
        "codigo_uf": 23,
        "fuso_horario": "America\/Sao_Paulo"
    },
    {
        "geocodigo": 2900108,
        "municipio": "Abaíra",
        "latitude": -13.2488,
        "longitude": -41.6619,
        "codigo_uf": 29,
        "fuso_horario": "America\/Sao_Paulo"
    },
    {
        "geocodigo": 2900207,
        "municipio": "Abaré",
        "latitude": -8.72073,
        "longitude": -39.1162,
        "codigo_uf": 29,
        "fuso_horario": "America\/Sao_Paulo"
    },
    {
        "geocodigo": 4100103,
        "municipio": "Abatiá",
        "latitude": -23.3049,
        "longitude": -50.3133,
        "codigo_uf": 41,
        "fuso_horario": "America\/Sao_Paulo"
    },
    {
        "geocodigo": 4200051,
        "municipio": "Abdon Batista",
        "latitude": -27.6126,
        "longitude": -51.0233,
        "codigo_uf": 42,
        "fuso_horario": "America\/Sao_Paulo"
    },
    {
        "geocodigo": 1500131,
        "municipio": "Abel Figueiredo",
        "latitude": -4.95333,
        "longitude": -48.3933,
        "codigo_uf": 15,
        "fuso_horario": "America\/Sao_Paulo"
    },
    {
        "geocodigo": 4200101,
        "municipio": "Abelardo Luz",
        "latitude": -26.5716,
        "longitude": -52.3229,
        "codigo_uf": 42,
        "fuso_horario": "America\/Sao_Paulo"
    },
    {
        "geocodigo": 3100302,
        "municipio": "Abre Campo",
        "latitude": -20.2996,
        "longitude": -42.4743,
        "codigo_uf": 31,
        "fuso_horario": "America\/Sao_Paulo"
    },
    {
        "geocodigo": 2600054,
        "municipio": "Abreu e Lima",
        "latitude": -7.90072,
        "longitude": -34.8984,
        "codigo_uf": 26,
        "fuso_horario": "America\/Sao_Paulo"
    },
    {
        "geocodigo": 1700251,
        "municipio": "Abreulândia",
        "latitude": -9.62101,
        "longitude": -49.1518,
        "codigo_uf": 17,
        "fuso_horario": "America\/Sao_Paulo"
    },
    {
        "geocodigo": 3100401,
        "municipio": "Acaiaca",
        "latitude": -20.359,
        "longitude": -43.1439,
        "codigo_uf": 31,
        "fuso_horario": "America\/Sao_Paulo"
    },
    {
        "geocodigo": 2100055,
        "municipio": "Açailândia",
        "latitude": -4.94714,
        "longitude": -47.5004,
        "codigo_uf": 21,
        "fuso_horario": "America\/Sao_Paulo"
    },
    {
        "geocodigo": 2900306,
        "municipio": "Acajutiba",
        "latitude": -11.6575,
        "longitude": -38.0197,
        "codigo_uf": 29,
        "fuso_horario": "America\/Sao_Paulo"
    },
    {
        "geocodigo": 1500206,
        "municipio": "Acará",
        "latitude": -1.95383,
        "longitude": -48.1985,
        "codigo_uf": 15,
        "fuso_horario": "America\/Sao_Paulo"
    },
    {
        "geocodigo": 2300150,
        "municipio": "Acarape",
        "latitude": -4.22083,
        "longitude": -38.7055,
        "codigo_uf": 23,
        "fuso_horario": "America\/Sao_Paulo"
    },
    {
        "geocodigo": 2300200,
        "municipio": "Acaraú",
        "latitude": -2.88769,
        "longitude": -40.1183,
        "codigo_uf": 23,
        "fuso_horario": "America\/Sao_Paulo"
    },
    {
        "geocodigo": 2400109,
        "municipio": "Acari",
        "latitude": -6.4282,
        "longitude": -36.6347,
        "codigo_uf": 24,
        "fuso_horario": "America\/Sao_Paulo"
    },
    {
        "geocodigo": 2200053,
        "municipio": "Acauã",
        "latitude": -8.21954,
        "longitude": -41.0831,
        "codigo_uf": 22,
        "fuso_horario": "America\/Sao_Paulo"
    },
    {
        "geocodigo": 4300034,
        "municipio": "Aceguá",
        "latitude": -31.8665,
        "longitude": -54.1615,
        "codigo_uf": 43,
        "fuso_horario": "America\/Sao_Paulo"
    },
    {
        "geocodigo": 2300309,
        "municipio": "Acopiara",
        "latitude": -6.08911,
        "longitude": -39.448,
        "codigo_uf": 23,
        "fuso_horario": "America\/Sao_Paulo"
    },
    {
        "geocodigo": 5100102,
        "municipio": "Acorizal",
        "latitude": -15.194,
        "longitude": -56.3632,
        "codigo_uf": 51,
        "fuso_horario": "America\/Porto_Velho"
    },
    {
        "geocodigo": 1200013,
        "municipio": "Acrelândia",
        "latitude": -9.82581,
        "longitude": -66.8972,
        "codigo_uf": 12,
        "fuso_horario": "America\/Rio_Branco"
    },
    {
        "geocodigo": 5200134,
        "municipio": "Acreúna",
        "latitude": -17.396,
        "longitude": -50.3749,
        "codigo_uf": 52,
        "fuso_horario": "America\/Sao_Paulo"
    },
    {
        "geocodigo": 2400208,
        "municipio": "Açu",
        "latitude": -5.58362,
        "longitude": -36.914,
        "codigo_uf": 24,
        "fuso_horario": "America\/Sao_Paulo"
    },
    {
        "geocodigo": 3100500,
        "municipio": "Açucena",
        "latitude": -19.0671,
        "longitude": -42.5419,
        "codigo_uf": 31,
        "fuso_horario": "America\/Sao_Paulo"
    },
    {
        "geocodigo": 3500105,
        "municipio": "Adamantina",
        "latitude": -21.682,
        "longitude": -51.0737,
        "codigo_uf": 35,
        "fuso_horario": "America\/Sao_Paulo"
    },
    {
        "geocodigo": 5200159,
        "municipio": "Adelândia",
        "latitude": -16.4127,
        "longitude": -50.1657,
        "codigo_uf": 52,
        "fuso_horario": "America\/Sao_Paulo"
    },
    {
        "geocodigo": 3500204,
        "municipio": "Adolfo",
        "latitude": -21.2325,
        "longitude": -49.6451,
        "codigo_uf": 35,
        "fuso_horario": "America\/Sao_Paulo"
    },
    {
        "geocodigo": 4100202,
        "municipio": "Adrianópolis",
        "latitude": -24.6606,
        "longitude": -48.9922,
        "codigo_uf": 41,
        "fuso_horario": "America\/Sao_Paulo"
    },
    {
        "geocodigo": 2900355,
        "municipio": "Adustina",
        "latitude": -10.5437,
        "longitude": -38.1113,
        "codigo_uf": 29,
        "fuso_horario": "America\/Sao_Paulo"
    },
    {
        "geocodigo": 2600104,
        "municipio": "Afogados da Ingazeira",
        "latitude": -7.74312,
        "longitude": -37.631,
        "codigo_uf": 26,
        "fuso_horario": "America\/Sao_Paulo"
    },
    {
        "geocodigo": 2400307,
        "municipio": "Afonso Bezerra",
        "latitude": -5.49229,
        "longitude": -36.5075,
        "codigo_uf": 24,
        "fuso_horario": "America\/Sao_Paulo"
    },
    {
        "geocodigo": 3200102,
        "municipio": "Afonso Cláudio",
        "latitude": -20.0778,
        "longitude": -41.1261,
        "codigo_uf": 32,
        "fuso_horario": "America\/Sao_Paulo"
    },
    {
        "geocodigo": 2100105,
        "municipio": "Afonso Cunha",
        "latitude": -4.13631,
        "longitude": -43.3275,
        "codigo_uf": 21,
        "fuso_horario": "America\/Sao_Paulo"
    },
    {
        "geocodigo": 2600203,
        "municipio": "Afrânio",
        "latitude": -8.51136,
        "longitude": -41.0095,
        "codigo_uf": 26,
        "fuso_horario": "America\/Sao_Paulo"
    },
    {
        "geocodigo": 1500305,
        "municipio": "Afuá",
        "latitude": -0.154874,
        "longitude": -50.3861,
        "codigo_uf": 15,
        "fuso_horario": "America\/Sao_Paulo"
    },
    {
        "geocodigo": 2600302,
        "municipio": "Agrestina",
        "latitude": -8.45966,
        "longitude": -35.9447,
        "codigo_uf": 26,
        "fuso_horario": "America\/Sao_Paulo"
    },
    {
        "geocodigo": 2200103,
        "municipio": "Agricolândia",
        "latitude": -5.79676,
        "longitude": -42.6664,
        "codigo_uf": 22,
        "fuso_horario": "America\/Sao_Paulo"
    },
    {
        "geocodigo": 4200200,
        "municipio": "Agrolândia",
        "latitude": -27.4087,
        "longitude": -49.822,
        "codigo_uf": 42,
        "fuso_horario": "America\/Sao_Paulo"
    },
    {
        "geocodigo": 4200309,
        "municipio": "Agronômica",
        "latitude": -27.2662,
        "longitude": -49.708,
        "codigo_uf": 42,
        "fuso_horario": "America\/Sao_Paulo"
    },
    {
        "geocodigo": 1500347,
        "municipio": "Água Azul do Norte",
        "latitude": -6.79053,
        "longitude": -50.4791,
        "codigo_uf": 15,
        "fuso_horario": "America\/Sao_Paulo"
    },
    {
        "geocodigo": 3100609,
        "municipio": "Água Boa",
        "latitude": -17.9914,
        "longitude": -42.3806,
        "codigo_uf": 31,
        "fuso_horario": "America\/Sao_Paulo"
    },
    {
        "geocodigo": 5100201,
        "municipio": "Água Boa",
        "latitude": -14.051,
        "longitude": -52.1601,
        "codigo_uf": 51,
        "fuso_horario": "America\/Porto_Velho"
    },
    {
        "geocodigo": 2200202,
        "municipio": "Água Branca",
        "latitude": -5.88856,
        "longitude": -42.637,
        "codigo_uf": 22,
        "fuso_horario": "America\/Sao_Paulo"
    },
    {
        "geocodigo": 2500106,
        "municipio": "Água Branca",
        "latitude": -7.51144,
        "longitude": -37.6357,
        "codigo_uf": 25,
        "fuso_horario": "America\/Sao_Paulo"
    },
    {
        "geocodigo": 2700102,
        "municipio": "Água Branca",
        "latitude": -9.262,
        "longitude": -37.938,
        "codigo_uf": 27,
        "fuso_horario": "America\/Sao_Paulo"
    },
    {
        "geocodigo": 5000203,
        "municipio": "Água Clara",
        "latitude": -20.4452,
        "longitude": -52.879,
        "codigo_uf": 50,
        "fuso_horario": "America\/Porto_Velho"
    },
    {
        "geocodigo": 3100708,
        "municipio": "Água Comprida",
        "latitude": -20.0576,
        "longitude": -48.1069,
        "codigo_uf": 31,
        "fuso_horario": "America\/Sao_Paulo"
    },
    {
        "geocodigo": 4200408,
        "municipio": "Água Doce",
        "latitude": -26.9985,
        "longitude": -51.5528,
        "codigo_uf": 42,
        "fuso_horario": "America\/Sao_Paulo"
    },
    {
        "geocodigo": 2100154,
        "municipio": "Água Doce do Maranhão",
        "latitude": -2.84048,
        "longitude": -42.1189,
        "codigo_uf": 21,
        "fuso_horario": "America\/Sao_Paulo"
    },
    {
        "geocodigo": 3200169,
        "municipio": "Água Doce do Norte",
        "latitude": -18.5482,
        "longitude": -40.9854,
        "codigo_uf": 32,
        "fuso_horario": "America\/Sao_Paulo"
    },
    {
        "geocodigo": 2900405,
        "municipio": "Água Fria",
        "latitude": -11.8618,
        "longitude": -38.7639,
        "codigo_uf": 29,
        "fuso_horario": "America\/Sao_Paulo"
    },
    {
        "geocodigo": 5200175,
        "municipio": "Água Fria de Goiás",
        "latitude": -14.9778,
        "longitude": -47.7823,
        "codigo_uf": 52,
        "fuso_horario": "America\/Sao_Paulo"
    },
    {
        "geocodigo": 5200209,
        "municipio": "Água Limpa",
        "latitude": -18.0771,
        "longitude": -48.7603,
        "codigo_uf": 52,
        "fuso_horario": "America\/Sao_Paulo"
    },
    {
        "geocodigo": 2400406,
        "municipio": "Água Nova",
        "latitude": -6.20351,
        "longitude": -38.2941,
        "codigo_uf": 24,
        "fuso_horario": "America\/Sao_Paulo"
    },
    {
        "geocodigo": 2600401,
        "municipio": "Água Preta",
        "latitude": -8.70609,
        "longitude": -35.5263,
        "codigo_uf": 26,
        "fuso_horario": "America\/Sao_Paulo"
    },
    {
        "geocodigo": 4300059,
        "municipio": "Água Santa",
        "latitude": -28.1672,
        "longitude": -52.031,
        "codigo_uf": 43,
        "fuso_horario": "America\/Sao_Paulo"
    },
    {
        "geocodigo": 3500303,
        "municipio": "Aguaí",
        "latitude": -22.0572,
        "longitude": -46.9735,
        "codigo_uf": 35,
        "fuso_horario": "America\/Sao_Paulo"
    },
    {
        "geocodigo": 3100807,
        "municipio": "Aguanil",
        "latitude": -20.9439,
        "longitude": -45.3915,
        "codigo_uf": 31,
        "fuso_horario": "America\/Sao_Paulo"
    },
    {
        "geocodigo": 2600500,
        "municipio": "Águas Belas",
        "latitude": -9.11125,
        "longitude": -37.1226,
        "codigo_uf": 26,
        "fuso_horario": "America\/Sao_Paulo"
    },
    {
        "geocodigo": 3500402,
        "municipio": "Águas da Prata",
        "latitude": -21.9319,
        "longitude": -46.7176,
        "codigo_uf": 35,
        "fuso_horario": "America\/Sao_Paulo"
    },
    {
        "geocodigo": 4200507,
        "municipio": "Águas de Chapecó",
        "latitude": -27.0754,
        "longitude": -52.9808,
        "codigo_uf": 42,
        "fuso_horario": "America\/Sao_Paulo"
    },
    {
        "geocodigo": 3500501,
        "municipio": "Águas de Lindóia",
        "latitude": -22.4733,
        "longitude": -46.6314,
        "codigo_uf": 35,
        "fuso_horario": "America\/Sao_Paulo"
    },
    {
        "geocodigo": 3500550,
        "municipio": "Águas de Santa Bárbara",
        "latitude": -22.8812,
        "longitude": -49.2421,
        "codigo_uf": 35,
        "fuso_horario": "America\/Sao_Paulo"
    },
    {
        "geocodigo": 3500600,
        "municipio": "Águas de São Pedro",
        "latitude": -22.5977,
        "longitude": -47.8734,
        "codigo_uf": 35,
        "fuso_horario": "America\/Sao_Paulo"
    },
    {
        "geocodigo": 3100906,
        "municipio": "Águas Formosas",
        "latitude": -17.0802,
        "longitude": -40.9384,
        "codigo_uf": 31,
        "fuso_horario": "America\/Sao_Paulo"
    },
    {
        "geocodigo": 4200556,
        "municipio": "Águas Frias",
        "latitude": -26.8794,
        "longitude": -52.8568,
        "codigo_uf": 42,
        "fuso_horario": "America\/Sao_Paulo"
    },
    {
        "geocodigo": 5200258,
        "municipio": "Águas Lindas de Goiás",
        "latitude": -15.7617,
        "longitude": -48.2816,
        "codigo_uf": 52,
        "fuso_horario": "America\/Sao_Paulo"
    },
    {
        "geocodigo": 4200606,
        "municipio": "Águas Mornas",
        "latitude": -27.6963,
        "longitude": -48.8243,
        "codigo_uf": 42,
        "fuso_horario": "America\/Sao_Paulo"
    },
    {
        "geocodigo": 3101003,
        "municipio": "Águas Vermelhas",
        "latitude": -15.7431,
        "longitude": -41.4571,
        "codigo_uf": 31,
        "fuso_horario": "America\/Sao_Paulo"
    },
    {
        "geocodigo": 4300109,
        "municipio": "Agudo",
        "latitude": -29.6447,
        "longitude": -53.2515,
        "codigo_uf": 43,
        "fuso_horario": "America\/Sao_Paulo"
    },
    {
        "geocodigo": 3500709,
        "municipio": "Agudos",
        "latitude": -22.4694,
        "longitude": -48.9863,
        "codigo_uf": 35,
        "fuso_horario": "America\/Sao_Paulo"
    },
    {
        "geocodigo": 4100301,
        "municipio": "Agudos do Sul",
        "latitude": -25.9899,
        "longitude": -49.3343,
        "codigo_uf": 41,
        "fuso_horario": "America\/Sao_Paulo"
    },
    {
        "geocodigo": 3200136,
        "municipio": "Águia Branca",
        "latitude": -18.9846,
        "longitude": -40.7437,
        "codigo_uf": 32,
        "fuso_horario": "America\/Sao_Paulo"
    },
    {
        "geocodigo": 2500205,
        "municipio": "Aguiar",
        "latitude": -7.0918,
        "longitude": -38.1681,
        "codigo_uf": 25,
        "fuso_horario": "America\/Sao_Paulo"
    },
    {
        "geocodigo": 1700301,
        "municipio": "Aguiarnópolis",
        "latitude": -6.55409,
        "longitude": -47.4702,
        "codigo_uf": 17,
        "fuso_horario": "America\/Sao_Paulo"
    },
    {
        "geocodigo": 3101102,
        "municipio": "Aimorés",
        "latitude": -19.5007,
        "longitude": -41.0746,
        "codigo_uf": 31,
        "fuso_horario": "America\/Sao_Paulo"
    },
    {
        "geocodigo": 2900603,
        "municipio": "Aiquara",
        "latitude": -14.1269,
        "longitude": -39.8937,
        "codigo_uf": 29,
        "fuso_horario": "America\/Sao_Paulo"
    },
    {
        "geocodigo": 2300408,
        "municipio": "Aiuaba",
        "latitude": -6.57122,
        "longitude": -40.1178,
        "codigo_uf": 23,
        "fuso_horario": "America\/Sao_Paulo"
    },
    {
        "geocodigo": 3101201,
        "municipio": "Aiuruoca",
        "latitude": -21.9736,
        "longitude": -44.6042,
        "codigo_uf": 31,
        "fuso_horario": "America\/Sao_Paulo"
    },
    {
        "geocodigo": 4300208,
        "municipio": "Ajuricaba",
        "latitude": -28.2342,
        "longitude": -53.7757,
        "codigo_uf": 43,
        "fuso_horario": "America\/Sao_Paulo"
    },
    {
        "geocodigo": 3101300,
        "municipio": "Alagoa",
        "latitude": -22.171,
        "longitude": -44.6413,
        "codigo_uf": 31,
        "fuso_horario": "America\/Sao_Paulo"
    },
    {
        "geocodigo": 2500304,
        "municipio": "Alagoa Grande",
        "latitude": -7.03943,
        "longitude": -35.6206,
        "codigo_uf": 25,
        "fuso_horario": "America\/Sao_Paulo"
    },
    {
        "geocodigo": 2500403,
        "municipio": "Alagoa Nova",
        "latitude": -7.05377,
        "longitude": -35.7591,
        "codigo_uf": 25,
        "fuso_horario": "America\/Sao_Paulo"
    },
    {
        "geocodigo": 2500502,
        "municipio": "Alagoinha",
        "latitude": -6.94657,
        "longitude": -35.5332,
        "codigo_uf": 25,
        "fuso_horario": "America\/Sao_Paulo"
    },
    {
        "geocodigo": 2600609,
        "municipio": "Alagoinha",
        "latitude": -8.4665,
        "longitude": -36.7788,
        "codigo_uf": 26,
        "fuso_horario": "America\/Sao_Paulo"
    },
    {
        "geocodigo": 2200251,
        "municipio": "Alagoinha do Piauí",
        "latitude": -7.00039,
        "longitude": -40.9282,
        "codigo_uf": 22,
        "fuso_horario": "America\/Sao_Paulo"
    },
    {
        "geocodigo": 2900702,
        "municipio": "Alagoinhas",
        "latitude": -12.1335,
        "longitude": -38.4208,
        "codigo_uf": 29,
        "fuso_horario": "America\/Sao_Paulo"
    },
    {
        "geocodigo": 3500758,
        "municipio": "Alambari",
        "latitude": -23.5503,
        "longitude": -47.898,
        "codigo_uf": 35,
        "fuso_horario": "America\/Sao_Paulo"
    },
    {
        "geocodigo": 3101409,
        "municipio": "Albertina",
        "latitude": -22.2018,
        "longitude": -46.6139,
        "codigo_uf": 31,
        "fuso_horario": "America\/Sao_Paulo"
    },
    {
        "geocodigo": 2100204,
        "municipio": "Alcântara",
        "latitude": -2.39574,
        "longitude": -44.4062,
        "codigo_uf": 21,
        "fuso_horario": "America\/Sao_Paulo"
    },
    {
        "geocodigo": 2300507,
        "municipio": "Alcântaras",
        "latitude": -3.58537,
        "longitude": -40.5479,
        "codigo_uf": 23,
        "fuso_horario": "America\/Sao_Paulo"
    },
    {
        "geocodigo": 2500536,
        "municipio": "Alcantil",
        "latitude": -7.73668,
        "longitude": -36.0511,
        "codigo_uf": 25,
        "fuso_horario": "America\/Sao_Paulo"
    },
    {
        "geocodigo": 5000252,
        "municipio": "Alcinópolis",
        "latitude": -18.3255,
        "longitude": -53.7042,
        "codigo_uf": 50,
        "fuso_horario": "America\/Porto_Velho"
    },
    {
        "geocodigo": 2900801,
        "municipio": "Alcobaça",
        "latitude": -17.5195,
        "longitude": -39.2036,
        "codigo_uf": 29,
        "fuso_horario": "America\/Sao_Paulo"
    },
    {
        "geocodigo": 2100303,
        "municipio": "Aldeias Altas",
        "latitude": -4.62621,
        "longitude": -43.4689,
        "codigo_uf": 21,
        "fuso_horario": "America\/Sao_Paulo"
    },
    {
        "geocodigo": 4300307,
        "municipio": "Alecrim",
        "latitude": -27.6579,
        "longitude": -54.7649,
        "codigo_uf": 43,
        "fuso_horario": "America\/Sao_Paulo"
    },
    {
        "geocodigo": 3200201,
        "municipio": "Alegre",
        "latitude": -20.758,
        "longitude": -41.5382,
        "codigo_uf": 32,
        "fuso_horario": "America\/Sao_Paulo"
    },
    {
        "geocodigo": 4300406,
        "municipio": "Alegrete",
        "latitude": -29.7902,
        "longitude": -55.7949,
        "codigo_uf": 43,
        "fuso_horario": "America\/Sao_Paulo"
    },
    {
        "geocodigo": 2200277,
        "municipio": "Alegrete do Piauí",
        "latitude": -7.24196,
        "longitude": -40.8566,
        "codigo_uf": 22,
        "fuso_horario": "America\/Sao_Paulo"
    },
    {
        "geocodigo": 4300455,
        "municipio": "Alegria",
        "latitude": -27.8345,
        "longitude": -54.0557,
        "codigo_uf": 43,
        "fuso_horario": "America\/Sao_Paulo"
    },
    {
        "geocodigo": 3101508,
        "municipio": "Além Paraíba",
        "latitude": -21.8797,
        "longitude": -42.7176,
        "codigo_uf": 31,
        "fuso_horario": "America\/Sao_Paulo"
    },
    {
        "geocodigo": 1500404,
        "municipio": "Alenquer",
        "latitude": -1.94623,
        "longitude": -54.7384,
        "codigo_uf": 15,
        "fuso_horario": "America\/Sao_Paulo"
    },
    {
        "geocodigo": 2400505,
        "municipio": "Alexandria",
        "latitude": -6.40533,
        "longitude": -38.0142,
        "codigo_uf": 24,
        "fuso_horario": "America\/Sao_Paulo"
    },
    {
        "geocodigo": 5200308,
        "municipio": "Alexânia",
        "latitude": -16.0834,
        "longitude": -48.5076,
        "codigo_uf": 52,
        "fuso_horario": "America\/Sao_Paulo"
    },
    {
        "geocodigo": 3101607,
        "municipio": "Alfenas",
        "latitude": -21.4256,
        "longitude": -45.9477,
        "codigo_uf": 31,
        "fuso_horario": "America\/Sao_Paulo"
    },
    {
        "geocodigo": 3200300,
        "municipio": "Alfredo Chaves",
        "latitude": -20.6396,
        "longitude": -40.7543,
        "codigo_uf": 32,
        "fuso_horario": "America\/Sao_Paulo"
    },
    {
        "geocodigo": 3500808,
        "municipio": "Alfredo Marcondes",
        "latitude": -21.9527,
        "longitude": -51.414,
        "codigo_uf": 35,
        "fuso_horario": "America\/Sao_Paulo"
    },
    {
        "geocodigo": 3101631,
        "municipio": "Alfredo Vasconcelos",
        "latitude": -21.1535,
        "longitude": -43.7718,
        "codigo_uf": 31,
        "fuso_horario": "America\/Sao_Paulo"
    },
    {
        "geocodigo": 4200705,
        "municipio": "Alfredo Wagner",
        "latitude": -27.7001,
        "longitude": -49.3273,
        "codigo_uf": 42,
        "fuso_horario": "America\/Sao_Paulo"
    },
    {
        "geocodigo": 2500577,
        "municipio": "Algodão de Jandaíra",
        "latitude": -6.89292,
        "longitude": -36.0129,
        "codigo_uf": 25,
        "fuso_horario": "America\/Sao_Paulo"
    },
    {
        "geocodigo": 2500601,
        "municipio": "Alhandra",
        "latitude": -7.42977,
        "longitude": -34.9057,
        "codigo_uf": 25,
        "fuso_horario": "America\/Sao_Paulo"
    },
    {
        "geocodigo": 2600708,
        "municipio": "Aliança",
        "latitude": -7.60398,
        "longitude": -35.2227,
        "codigo_uf": 26,
        "fuso_horario": "America\/Sao_Paulo"
    },
    {
        "geocodigo": 1700350,
        "municipio": "Aliança do Tocantins",
        "latitude": -11.3056,
        "longitude": -48.9361,
        "codigo_uf": 17,
        "fuso_horario": "America\/Sao_Paulo"
    },
    {
        "geocodigo": 2900900,
        "municipio": "Almadina",
        "latitude": -14.7089,
        "longitude": -39.6415,
        "codigo_uf": 29,
        "fuso_horario": "America\/Sao_Paulo"
    },
    {
        "geocodigo": 1700400,
        "municipio": "Almas",
        "latitude": -11.5706,
        "longitude": -47.1792,
        "codigo_uf": 17,
        "fuso_horario": "America\/Sao_Paulo"
    },
    {
        "geocodigo": 1500503,
        "municipio": "Almeirim",
        "latitude": -1.52904,
        "longitude": -52.5788,
        "codigo_uf": 15,
        "fuso_horario": "America\/Sao_Paulo"
    },
    {
        "geocodigo": 3101706,
        "municipio": "Almenara",
        "latitude": -16.1785,
        "longitude": -40.6942,
        "codigo_uf": 31,
        "fuso_horario": "America\/Sao_Paulo"
    },
    {
        "geocodigo": 2400604,
        "municipio": "Almino Afonso",
        "latitude": -6.1475,
        "longitude": -37.7636,
        "codigo_uf": 24,
        "fuso_horario": "America\/Sao_Paulo"
    },
    {
        "geocodigo": 4100400,
        "municipio": "Almirante Tamandaré",
        "latitude": -25.3188,
        "longitude": -49.3037,
        "codigo_uf": 41,
        "fuso_horario": "America\/Sao_Paulo"
    },
    {
        "geocodigo": 4300471,
        "municipio": "Almirante Tamandaré do Sul",
        "latitude": -28.1149,
        "longitude": -52.9142,
        "codigo_uf": 43,
        "fuso_horario": "America\/Sao_Paulo"
    },
    {
        "geocodigo": 5200506,
        "municipio": "Aloândia",
        "latitude": -17.7292,
        "longitude": -49.4769,
        "codigo_uf": 52,
        "fuso_horario": "America\/Sao_Paulo"
    },
    {
        "geocodigo": 3101805,
        "municipio": "Alpercata",
        "latitude": -18.974,
        "longitude": -41.97,
        "codigo_uf": 31,
        "fuso_horario": "America\/Sao_Paulo"
    },
    {
        "geocodigo": 4300505,
        "municipio": "Alpestre",
        "latitude": -27.2502,
        "longitude": -53.0341,
        "codigo_uf": 43,
        "fuso_horario": "America\/Sao_Paulo"
    },
    {
        "geocodigo": 3101904,
        "municipio": "Alpinópolis",
        "latitude": -20.8631,
        "longitude": -46.3878,
        "codigo_uf": 31,
        "fuso_horario": "America\/Sao_Paulo"
    },
    {
        "geocodigo": 5100250,
        "municipio": "Alta Floresta",
        "latitude": -9.86674,
        "longitude": -56.0867,
        "codigo_uf": 51,
        "fuso_horario": "America\/Porto_Velho"
    },
    {
        "geocodigo": 1100015,
        "municipio": "Alta Floresta D'Oeste",
        "latitude": -11.9283,
        "longitude": -61.9953,
        "codigo_uf": 11,
        "fuso_horario": "America\/Porto_Velho"
    },
    {
        "geocodigo": 3500907,
        "municipio": "Altair",
        "latitude": -20.5242,
        "longitude": -49.0571,
        "codigo_uf": 35,
        "fuso_horario": "America\/Sao_Paulo"
    },
    {
        "geocodigo": 1500602,
        "municipio": "Altamira",
        "latitude": -3.20407,
        "longitude": -52.21,
        "codigo_uf": 15,
        "fuso_horario": "America\/Sao_Paulo"
    },
    {
        "geocodigo": 2100402,
        "municipio": "Altamira do Maranhão",
        "latitude": -4.16598,
        "longitude": -45.4706,
        "codigo_uf": 21,
        "fuso_horario": "America\/Sao_Paulo"
    },
    {
        "geocodigo": 4100459,
        "municipio": "Altamira do Paraná",
        "latitude": -24.7983,
        "longitude": -52.7128,
        "codigo_uf": 41,
        "fuso_horario": "America\/Sao_Paulo"
    },
    {
        "geocodigo": 2300606,
        "municipio": "Altaneira",
        "latitude": -6.99837,
        "longitude": -39.7356,
        "codigo_uf": 23,
        "fuso_horario": "America\/Sao_Paulo"
    },
    {
        "geocodigo": 3102001,
        "municipio": "Alterosa",
        "latitude": -21.2488,
        "longitude": -46.1387,
        "codigo_uf": 31,
        "fuso_horario": "America\/Sao_Paulo"
    },
    {
        "geocodigo": 2600807,
        "municipio": "Altinho",
        "latitude": -8.48482,
        "longitude": -36.0644,
        "codigo_uf": 26,
        "fuso_horario": "America\/Sao_Paulo"
    },
    {
        "geocodigo": 3501004,
        "municipio": "Altinópolis",
        "latitude": -21.0214,
        "longitude": -47.3712,
        "codigo_uf": 35,
        "fuso_horario": "America\/Sao_Paulo"
    },
    {
        "geocodigo": 3501103,
        "municipio": "Alto Alegre",
        "latitude": -21.5811,
        "longitude": -50.168,
        "codigo_uf": 35,
        "fuso_horario": "America\/Sao_Paulo"
    },
    {
        "geocodigo": 1400050,
        "municipio": "Alto Alegre",
        "latitude": 2.98858,
        "longitude": -61.3072,
        "codigo_uf": 14,
        "fuso_horario": "America\/Porto_Velho"
    },
    {
        "geocodigo": 4300554,
        "municipio": "Alto Alegre",
        "latitude": -28.7769,
        "longitude": -52.9893,
        "codigo_uf": 43,
        "fuso_horario": "America\/Sao_Paulo"
    },
    {
        "geocodigo": 2100436,
        "municipio": "Alto Alegre do Maranhão",
        "latitude": -4.213,
        "longitude": -44.446,
        "codigo_uf": 21,
        "fuso_horario": "America\/Sao_Paulo"
    },
    {
        "geocodigo": 2100477,
        "municipio": "Alto Alegre do Pindaré",
        "latitude": -3.66689,
        "longitude": -45.8421,
        "codigo_uf": 21,
        "fuso_horario": "America\/Sao_Paulo"
    },
    {
        "geocodigo": 1100379,
        "municipio": "Alto Alegre dos Parecis",
        "latitude": -12.132,
        "longitude": -61.835,
        "codigo_uf": 11,
        "fuso_horario": "America\/Porto_Velho"
    },
    {
        "geocodigo": 5100300,
        "municipio": "Alto Araguaia",
        "latitude": -17.3153,
        "longitude": -53.2181,
        "codigo_uf": 51,
        "fuso_horario": "America\/Porto_Velho"
    },
    {
        "geocodigo": 4200754,
        "municipio": "Alto Bela Vista",
        "latitude": -27.4333,
        "longitude": -51.9044,
        "codigo_uf": 42,
        "fuso_horario": "America\/Sao_Paulo"
    },
    {
        "geocodigo": 5100359,
        "municipio": "Alto Boa Vista",
        "latitude": -11.6732,
        "longitude": -51.3883,
        "codigo_uf": 51,
        "fuso_horario": "America\/Porto_Velho"
    },
    {
        "geocodigo": 3102050,
        "municipio": "Alto Caparaó",
        "latitude": -20.431,
        "longitude": -41.8738,
        "codigo_uf": 31,
        "fuso_horario": "America\/Sao_Paulo"
    },
    {
        "geocodigo": 2400703,
        "municipio": "Alto do Rodrigues",
        "latitude": -5.28186,
        "longitude": -36.750012,
        "codigo_uf": 24,
        "fuso_horario": "America\/Sao_Paulo"
    },
    {
        "geocodigo": 4300570,
        "municipio": "Alto Feliz",
        "latitude": -29.3919,
        "longitude": -51.3123,
        "codigo_uf": 43,
        "fuso_horario": "America\/Sao_Paulo"
    },
    {
        "geocodigo": 5100409,
        "municipio": "Alto Garças",
        "latitude": -16.9462,
        "longitude": -53.5272,
        "codigo_uf": 51,
        "fuso_horario": "America\/Porto_Velho"
    },
    {
        "geocodigo": 5200555,
        "municipio": "Alto Horizonte",
        "latitude": -14.1978,
        "longitude": -49.3378,
        "codigo_uf": 52,
        "fuso_horario": "America\/Sao_Paulo"
    },
    {
        "geocodigo": 3153509,
        "municipio": "Alto Jequitibá",
        "latitude": -20.4208,
        "longitude": -41.9670,
        "codigo_uf": 31,
        "fuso_horario": "America\/Sao_Paulo"
    },
    {
        "geocodigo": 2200301,
        "municipio": "Alto Longá",
        "latitude": -5.25634,
        "longitude": -42.2096,
        "codigo_uf": 22,
        "fuso_horario": "America\/Sao_Paulo"
    },
    {
        "geocodigo": 5100508,
        "municipio": "Alto Paraguai",
        "latitude": -14.5137,
        "longitude": -56.4776,
        "codigo_uf": 51,
        "fuso_horario": "America\/Porto_Velho"
    },
    {
        "geocodigo": 4128625,
        "municipio": "Alto Paraíso",
        "latitude": -26.1146,
        "longitude": -52.7469,
        "codigo_uf": 41,
        "fuso_horario": "America\/Sao_Paulo"
    },
    {
        "geocodigo": 1100403,
        "municipio": "Alto Paraíso",
        "latitude": -9.71429,
        "longitude": -63.3188,
        "codigo_uf": 11,
        "fuso_horario": "America\/Porto_Velho"
    },
    {
        "geocodigo": 5200605,
        "municipio": "Alto Paraíso de Goiás",
        "latitude": -14.1305,
        "longitude": -47.51,
        "codigo_uf": 52,
        "fuso_horario": "America\/Sao_Paulo"
    },
    {
        "geocodigo": 4100608,
        "municipio": "Alto Paraná",
        "latitude": -23.1312,
        "longitude": -52.3189,
        "codigo_uf": 41,
        "fuso_horario": "America\/Sao_Paulo"
    },
    {
        "geocodigo": 2100501,
        "municipio": "Alto Parnaíba",
        "latitude": -9.10273,
        "longitude": -45.9303,
        "codigo_uf": 21,
        "fuso_horario": "America\/Sao_Paulo"
    },
    {
        "geocodigo": 4100707,
        "municipio": "Alto Piquiri",
        "latitude": -24.0224,
        "longitude": -53.44,
        "codigo_uf": 41,
        "fuso_horario": "America\/Sao_Paulo"
    },
    {
        "geocodigo": 3102100,
        "municipio": "Alto Rio Doce",
        "latitude": -21.0281,
        "longitude": -43.4067,
        "codigo_uf": 31,
        "fuso_horario": "America\/Sao_Paulo"
    },
    {
        "geocodigo": 3200359,
        "municipio": "Alto Rio Novo",
        "latitude": -19.0618,
        "longitude": -41.0209,
        "codigo_uf": 32,
        "fuso_horario": "America\/Sao_Paulo"
    },
    {
        "geocodigo": 2300705,
        "municipio": "Alto Santo",
        "latitude": -5.50894,
        "longitude": -38.2743,
        "codigo_uf": 23,
        "fuso_horario": "America\/Sao_Paulo"
    },
    {
        "geocodigo": 5100607,
        "municipio": "Alto Taquari",
        "latitude": -17.8241,
        "longitude": -53.2792,
        "codigo_uf": 51,
        "fuso_horario": "America\/Porto_Velho"
    },
    {
        "geocodigo": 4100509,
        "municipio": "Altônia",
        "latitude": -23.8759,
        "longitude": -53.8958,
        "codigo_uf": 41,
        "fuso_horario": "America\/Sao_Paulo"
    },
    {
        "geocodigo": 2200400,
        "municipio": "Altos",
        "latitude": -5.03888,
        "longitude": -42.4612,
        "codigo_uf": 22,
        "fuso_horario": "America\/Sao_Paulo"
    },
    {
        "geocodigo": 3501152,
        "municipio": "Alumínio",
        "latitude": -23.5306,
        "longitude": -47.2546,
        "codigo_uf": 35,
        "fuso_horario": "America\/Sao_Paulo"
    },
    {
        "geocodigo": 1300029,
        "municipio": "Alvarães",
        "latitude": -3.22727,
        "longitude": -64.8007,
        "codigo_uf": 13,
        "fuso_horario": "America\/Porto_Velho"
    },
    {
        "geocodigo": 3102209,
        "municipio": "Alvarenga",
        "latitude": -19.4174,
        "longitude": -41.7317,
        "codigo_uf": 31,
        "fuso_horario": "America\/Sao_Paulo"
    },
    {
        "geocodigo": 3501202,
        "municipio": "Álvares Florence",
        "latitude": -20.3203,
        "longitude": -49.9141,
        "codigo_uf": 35,
        "fuso_horario": "America\/Sao_Paulo"
    },
    {
        "geocodigo": 3501301,
        "municipio": "Álvares Machado",
        "latitude": -22.0764,
        "longitude": -51.4722,
        "codigo_uf": 35,
        "fuso_horario": "America\/Sao_Paulo"
    },
    {
        "geocodigo": 3501400,
        "municipio": "Álvaro de Carvalho",
        "latitude": -22.0841,
        "longitude": -49.719,
        "codigo_uf": 35,
        "fuso_horario": "America\/Sao_Paulo"
    },
    {
        "geocodigo": 3501509,
        "municipio": "Alvinlândia",
        "latitude": -22.4435,
        "longitude": -49.7623,
        "codigo_uf": 35,
        "fuso_horario": "America\/Sao_Paulo"
    },
    {
        "geocodigo": 3102308,
        "municipio": "Alvinópolis",
        "latitude": -20.1098,
        "longitude": -43.0535,
        "codigo_uf": 31,
        "fuso_horario": "America\/Sao_Paulo"
    },
    {
        "geocodigo": 1700707,
        "municipio": "Alvorada",
        "latitude": -12.4785,
        "longitude": -49.1249,
        "codigo_uf": 17,
        "fuso_horario": "America\/Sao_Paulo"
    },
    {
        "geocodigo": 4300604,
        "municipio": "Alvorada",
        "latitude": -29.9914,
        "longitude": -51.0809,
        "codigo_uf": 43,
        "fuso_horario": "America\/Sao_Paulo"
    },
    {
        "geocodigo": 1100346,
        "municipio": "Alvorada D'Oeste",
        "latitude": -11.3463,
        "longitude": -62.2847,
        "codigo_uf": 11,
        "fuso_horario": "America\/Porto_Velho"
    },
    {
        "geocodigo": 3102407,
        "municipio": "Alvorada de Minas",
        "latitude": -18.7334,
        "longitude": -43.3638,
        "codigo_uf": 31,
        "fuso_horario": "America\/Sao_Paulo"
    },
    {
        "geocodigo": 2200459,
        "municipio": "Alvorada do Gurguéia",
        "latitude": -8.42418,
        "longitude": -43.777,
        "codigo_uf": 22,
        "fuso_horario": "America\/Sao_Paulo"
    },
    {
        "geocodigo": 5200803,
        "municipio": "Alvorada do Norte",
        "latitude": -14.4797,
        "longitude": -46.491,
        "codigo_uf": 52,
        "fuso_horario": "America\/Sao_Paulo"
    },
    {
        "geocodigo": 4100806,
        "municipio": "Alvorada do Sul",
        "latitude": -22.7813,
        "longitude": -51.2297,
        "codigo_uf": 41,
        "fuso_horario": "America\/Sao_Paulo"
    },
    {
        "geocodigo": 1400027,
        "municipio": "Amajari",
        "latitude": 3.64571,
        "longitude": -61.3692,
        "codigo_uf": 14,
        "fuso_horario": "America\/Porto_Velho"
    },
    {
        "geocodigo": 5000609,
        "municipio": "Amambai",
        "latitude": -23.1058,
        "longitude": -55.2253,
        "codigo_uf": 50,
        "fuso_horario": "America\/Porto_Velho"
    },
    {
        "geocodigo": 1600105,
        "municipio": "Amapá",
        "latitude": 2.05267,
        "longitude": -50.7957,
        "codigo_uf": 16,
        "fuso_horario": "America\/Sao_Paulo"
    },
    {
        "geocodigo": 2100550,
        "municipio": "Amapá do Maranhão",
        "latitude": -1.67524,
        "longitude": -46.0024,
        "codigo_uf": 21,
        "fuso_horario": "America\/Sao_Paulo"
    },
    {
        "geocodigo": 4100905,
        "municipio": "Amaporã",
        "latitude": -23.0943,
        "longitude": -52.7866,
        "codigo_uf": 41,
        "fuso_horario": "America\/Sao_Paulo"
    },
    {
        "geocodigo": 2600906,
        "municipio": "Amaraji",
        "latitude": -8.37691,
        "longitude": -35.4501,
        "codigo_uf": 26,
        "fuso_horario": "America\/Sao_Paulo"
    },
    {
        "geocodigo": 4300638,
        "municipio": "Amaral Ferrador",
        "latitude": -30.8756,
        "longitude": -52.2509,
        "codigo_uf": 43,
        "fuso_horario": "America\/Sao_Paulo"
    },
    {
        "geocodigo": 5200829,
        "municipio": "Amaralina",
        "latitude": -13.9236,
        "longitude": -49.2962,
        "codigo_uf": 52,
        "fuso_horario": "America\/Sao_Paulo"
    },
    {
        "geocodigo": 2200509,
        "municipio": "Amarante",
        "latitude": -6.24304,
        "longitude": -42.8433,
        "codigo_uf": 22,
        "fuso_horario": "America\/Sao_Paulo"
    },
    {
        "geocodigo": 2100600,
        "municipio": "Amarante do Maranhão",
        "latitude": -5.56913,
        "longitude": -46.7473,
        "codigo_uf": 21,
        "fuso_horario": "America\/Sao_Paulo"
    },
    {
        "geocodigo": 2901007,
        "municipio": "Amargosa",
        "latitude": -13.0215,
        "longitude": -39.602,
        "codigo_uf": 29,
        "fuso_horario": "America\/Sao_Paulo"
    },
    {
        "geocodigo": 1300060,
        "municipio": "Amaturá",
        "latitude": -3.37455,
        "longitude": -68.2005,
        "codigo_uf": 13,
        "fuso_horario": "America\/Porto_Velho"
    },
    {
        "geocodigo": 2901106,
        "municipio": "Amélia Rodrigues",
        "latitude": -12.3914,
        "longitude": -38.7563,
        "codigo_uf": 29,
        "fuso_horario": "America\/Sao_Paulo"
    },
    {
        "geocodigo": 2901155,
        "municipio": "América Dourada",
        "latitude": -11.4429,
        "longitude": -41.439,
        "codigo_uf": 29,
        "fuso_horario": "America\/Sao_Paulo"
    },
    {
        "geocodigo": 3501608,
        "municipio": "Americana",
        "latitude": -22.7374,
        "longitude": -47.3331,
        "codigo_uf": 35,
        "fuso_horario": "America\/Sao_Paulo"
    },
    {
        "geocodigo": 5200852,
        "municipio": "Americano do Brasil",
        "latitude": -16.2514,
        "longitude": -49.9831,
        "codigo_uf": 52,
        "fuso_horario": "America\/Sao_Paulo"
    },
    {
        "geocodigo": 3501707,
        "municipio": "Américo Brasiliense",
        "latitude": -21.7288,
        "longitude": -48.1147,
        "codigo_uf": 35,
        "fuso_horario": "America\/Sao_Paulo"
    },
    {
        "geocodigo": 3501806,
        "municipio": "Américo de Campos",
        "latitude": -20.2985,
        "longitude": -49.7359,
        "codigo_uf": 35,
        "fuso_horario": "America\/Sao_Paulo"
    },
    {
        "geocodigo": 4300646,
        "municipio": "Ametista do Sul",
        "latitude": -27.3607,
        "longitude": -53.183,
        "codigo_uf": 43,
        "fuso_horario": "America\/Sao_Paulo"
    },
    {
        "geocodigo": 2300754,
        "municipio": "Amontada",
        "latitude": -3.36017,
        "longitude": -39.8288,
        "codigo_uf": 23,
        "fuso_horario": "America\/Sao_Paulo"
    },
    {
        "geocodigo": 5200902,
        "municipio": "Amorinópolis",
        "latitude": -16.6151,
        "longitude": -51.0919,
        "codigo_uf": 52,
        "fuso_horario": "America\/Sao_Paulo"
    },
    {
        "geocodigo": 2500734,
        "municipio": "Amparo",
        "latitude": -7.55502,
        "longitude": -37.0628,
        "codigo_uf": 25,
        "fuso_horario": "America\/Sao_Paulo"
    },
    {
        "geocodigo": 3501905,
        "municipio": "Amparo",
        "latitude": -22.7088,
        "longitude": -46.772,
        "codigo_uf": 35,
        "fuso_horario": "America\/Sao_Paulo"
    },
    {
        "geocodigo": 2800100,
        "municipio": "Amparo de São Francisco",
        "latitude": -10.1348,
        "longitude": -36.935,
        "codigo_uf": 28,
        "fuso_horario": "America\/Sao_Paulo"
    },
    {
        "geocodigo": 3102506,
        "municipio": "Amparo do Serra",
        "latitude": -20.5051,
        "longitude": -42.8009,
        "codigo_uf": 31,
        "fuso_horario": "America\/Sao_Paulo"
    },
    {
        "geocodigo": 4101002,
        "municipio": "Ampére",
        "latitude": -25.9168,
        "longitude": -53.4686,
        "codigo_uf": 41,
        "fuso_horario": "America\/Sao_Paulo"
    },
    {
        "geocodigo": 2700201,
        "municipio": "Anadia",
        "latitude": -9.68489,
        "longitude": -36.3078,
        "codigo_uf": 27,
        "fuso_horario": "America\/Sao_Paulo"
    },
    {
        "geocodigo": 2901205,
        "municipio": "Anagé",
        "latitude": -14.6151,
        "longitude": -41.1356,
        "codigo_uf": 29,
        "fuso_horario": "America\/Sao_Paulo"
    },
    {
        "geocodigo": 4101051,
        "municipio": "Anahy",
        "latitude": -24.6449,
        "longitude": -53.1332,
        "codigo_uf": 41,
        "fuso_horario": "America\/Sao_Paulo"
    },
    {
        "geocodigo": 1500701,
        "municipio": "Anajás",
        "latitude": -0.996811,
        "longitude": -49.9354,
        "codigo_uf": 15,
        "fuso_horario": "America\/Sao_Paulo"
    },
    {
        "geocodigo": 2100709,
        "municipio": "Anajatuba",
        "latitude": -3.26269,
        "longitude": -44.6126,
        "codigo_uf": 21,
        "fuso_horario": "America\/Sao_Paulo"
    },
    {
        "geocodigo": 3502002,
        "municipio": "Analândia",
        "latitude": -22.1289,
        "longitude": -47.6619,
        "codigo_uf": 35,
        "fuso_horario": "America\/Sao_Paulo"
    },
    {
        "geocodigo": 1300086,
        "municipio": "Anamã",
        "latitude": -3.56697,
        "longitude": -61.3963,
        "codigo_uf": 13,
        "fuso_horario": "America\/Porto_Velho"
    },
    {
        "geocodigo": 1701002,
        "municipio": "Ananás",
        "latitude": -6.36437,
        "longitude": -48.0735,
        "codigo_uf": 17,
        "fuso_horario": "America\/Sao_Paulo"
    },
    {
        "geocodigo": 1500800,
        "municipio": "Ananindeua",
        "latitude": -1.36391,
        "longitude": -48.3743,
        "codigo_uf": 15,
        "fuso_horario": "America\/Sao_Paulo"
    },
    {
        "geocodigo": 5201108,
        "municipio": "Anápolis",
        "latitude": -16.3281,
        "longitude": -48.953,
        "codigo_uf": 52,
        "fuso_horario": "America\/Sao_Paulo"
    },
    {
        "geocodigo": 1500859,
        "municipio": "Anapu",
        "latitude": -3.46985,
        "longitude": -51.2003,
        "codigo_uf": 15,
        "fuso_horario": "America\/Sao_Paulo"
    },
    {
        "geocodigo": 2100808,
        "municipio": "Anapurus",
        "latitude": -3.67577,
        "longitude": -43.1014,
        "codigo_uf": 21,
        "fuso_horario": "America\/Sao_Paulo"
    },
    {
        "geocodigo": 5000708,
        "municipio": "Anastácio",
        "latitude": -20.4823,
        "longitude": -55.8104,
        "codigo_uf": 50,
        "fuso_horario": "America\/Porto_Velho"
    },
    {
        "geocodigo": 5000807,
        "municipio": "Anaurilândia",
        "latitude": -22.1852,
        "longitude": -52.7191,
        "codigo_uf": 50,
        "fuso_horario": "America\/Porto_Velho"
    },
    {
        "geocodigo": 4200804,
        "municipio": "Anchieta",
        "latitude": -26.5382,
        "longitude": -53.3319,
        "codigo_uf": 42,
        "fuso_horario": "America\/Sao_Paulo"
    },
    {
        "geocodigo": 3200409,
        "municipio": "Anchieta",
        "latitude": -20.7955,
        "longitude": -40.6425,
        "codigo_uf": 32,
        "fuso_horario": "America\/Sao_Paulo"
    },
    {
        "geocodigo": 2901304,
        "municipio": "Andaraí",
        "latitude": -12.8049,
        "longitude": -41.3297,
        "codigo_uf": 29,
        "fuso_horario": "America\/Sao_Paulo"
    },
    {
        "geocodigo": 4101101,
        "municipio": "Andirá",
        "latitude": -23.0533,
        "longitude": -50.2304,
        "codigo_uf": 41,
        "fuso_horario": "America\/Sao_Paulo"
    },
    {
        "geocodigo": 2901353,
        "municipio": "Andorinha",
        "latitude": -10.3482,
        "longitude": -39.8391,
        "codigo_uf": 29,
        "fuso_horario": "America\/Sao_Paulo"
    },
    {
        "geocodigo": 3102605,
        "municipio": "Andradas",
        "latitude": -22.0695,
        "longitude": -46.5724,
        "codigo_uf": 31,
        "fuso_horario": "America\/Sao_Paulo"
    },
    {
        "geocodigo": 3502101,
        "municipio": "Andradina",
        "latitude": -20.8948,
        "longitude": -51.3786,
        "codigo_uf": 35,
        "fuso_horario": "America\/Sao_Paulo"
    },
    {
        "geocodigo": 4300661,
        "municipio": "André da Rocha",
        "latitude": -28.6283,
        "longitude": -51.5797,
        "codigo_uf": 43,
        "fuso_horario": "America\/Sao_Paulo"
    },
    {
        "geocodigo": 3102803,
        "municipio": "Andrelândia",
        "latitude": -21.7411,
        "longitude": -44.3117,
        "codigo_uf": 31,
        "fuso_horario": "America\/Sao_Paulo"
    },
    {
        "geocodigo": 3502200,
        "municipio": "Angatuba",
        "latitude": -23.4917,
        "longitude": -48.4139,
        "codigo_uf": 35,
        "fuso_horario": "America\/Sao_Paulo"
    },
    {
        "geocodigo": 3102852,
        "municipio": "Angelândia",
        "latitude": -17.7279,
        "longitude": -42.2641,
        "codigo_uf": 31,
        "fuso_horario": "America\/Sao_Paulo"
    },
    {
        "geocodigo": 5000856,
        "municipio": "Angélica",
        "latitude": -22.1527,
        "longitude": -53.7708,
        "codigo_uf": 50,
        "fuso_horario": "America\/Porto_Velho"
    },
    {
        "geocodigo": 2601003,
        "municipio": "Angelim",
        "latitude": -8.88429,
        "longitude": -36.2902,
        "codigo_uf": 26,
        "fuso_horario": "America\/Sao_Paulo"
    },
    {
        "geocodigo": 4200903,
        "municipio": "Angelina",
        "latitude": -27.5704,
        "longitude": -48.9879,
        "codigo_uf": 42,
        "fuso_horario": "America\/Sao_Paulo"
    },
    {
        "geocodigo": 2901403,
        "municipio": "Angical",
        "latitude": -12.0063,
        "longitude": -44.7003,
        "codigo_uf": 29,
        "fuso_horario": "America\/Sao_Paulo"
    },
    {
        "geocodigo": 2200608,
        "municipio": "Angical do Piauí",
        "latitude": -6.08786,
        "longitude": -42.74,
        "codigo_uf": 22,
        "fuso_horario": "America\/Sao_Paulo"
    },
    {
        "geocodigo": 1701051,
        "municipio": "Angico",
        "latitude": -6.39179,
        "longitude": -47.8611,
        "codigo_uf": 17,
        "fuso_horario": "America\/Sao_Paulo"
    },
    {
        "geocodigo": 2400802,
        "municipio": "Angicos",
        "latitude": -5.65792,
        "longitude": -36.6094,
        "codigo_uf": 24,
        "fuso_horario": "America\/Sao_Paulo"
    },
    {
        "geocodigo": 3300100,
        "municipio": "Angra dos Reis",
        "latitude": -23.0011,
        "longitude": -44.3196,
        "codigo_uf": 33,
        "fuso_horario": "America\/Sao_Paulo"
    },
    {
        "geocodigo": 2901502,
        "municipio": "Anguera",
        "latitude": -12.1462,
        "longitude": -39.2462,
        "codigo_uf": 29,
        "fuso_horario": "America\/Sao_Paulo"
    },
    {
        "geocodigo": 4101150,
        "municipio": "Ângulo",
        "latitude": -23.1946,
        "longitude": -51.9154,
        "codigo_uf": 41,
        "fuso_horario": "America\/Sao_Paulo"
    },
    {
        "geocodigo": 5201207,
        "municipio": "Anhanguera",
        "latitude": -18.3339,
        "longitude": -48.2204,
        "codigo_uf": 52,
        "fuso_horario": "America\/Sao_Paulo"
    },
    {
        "geocodigo": 3502309,
        "municipio": "Anhembi",
        "latitude": -22.793,
        "longitude": -48.1336,
        "codigo_uf": 35,
        "fuso_horario": "America\/Sao_Paulo"
    },
    {
        "geocodigo": 3502408,
        "municipio": "Anhumas",
        "latitude": -22.2934,
        "longitude": -51.3895,
        "codigo_uf": 35,
        "fuso_horario": "America\/Sao_Paulo"
    },
    {
        "geocodigo": 5201306,
        "municipio": "Anicuns",
        "latitude": -16.4642,
        "longitude": -49.9617,
        "codigo_uf": 52,
        "fuso_horario": "America\/Sao_Paulo"
    },
    {
        "geocodigo": 2200707,
        "municipio": "Anísio de Abreu",
        "latitude": -9.18564,
        "longitude": -43.0494,
        "codigo_uf": 22,
        "fuso_horario": "America\/Sao_Paulo"
    },
    {
        "geocodigo": 4201000,
        "municipio": "Anita Garibaldi",
        "latitude": -27.6897,
        "longitude": -51.1271,
        "codigo_uf": 42,
        "fuso_horario": "America\/Sao_Paulo"
    },
    {
        "geocodigo": 4201109,
        "municipio": "Anitápolis",
        "latitude": -27.9012,
        "longitude": -49.1316,
        "codigo_uf": 42,
        "fuso_horario": "America\/Sao_Paulo"
    },
    {
        "geocodigo": 1300102,
        "municipio": "Anori",
        "latitude": -3.74603,
        "longitude": -61.6575,
        "codigo_uf": 13,
        "fuso_horario": "America\/Porto_Velho"
    },
    {
        "geocodigo": 4300703,
        "municipio": "Anta Gorda",
        "latitude": -28.9698,
        "longitude": -52.0102,
        "codigo_uf": 43,
        "fuso_horario": "America\/Sao_Paulo"
    },
    {
        "geocodigo": 2901601,
        "municipio": "Antas",
        "latitude": -10.3856,
        "longitude": -38.3401,
        "codigo_uf": 29,
        "fuso_horario": "America\/Sao_Paulo"
    },
    {
        "geocodigo": 4101200,
        "municipio": "Antonina",
        "latitude": -25.4386,
        "longitude": -48.7191,
        "codigo_uf": 41,
        "fuso_horario": "America\/Sao_Paulo"
    },
    {
        "geocodigo": 2300804,
        "municipio": "Antonina do Norte",
        "latitude": -6.76919,
        "longitude": -39.987,
        "codigo_uf": 23,
        "fuso_horario": "America\/Sao_Paulo"
    },
    {
        "geocodigo": 2200806,
        "municipio": "Antônio Almeida",
        "latitude": -7.21276,
        "longitude": -44.1889,
        "codigo_uf": 22,
        "fuso_horario": "America\/Sao_Paulo"
    },
    {
        "geocodigo": 2901700,
        "municipio": "Antônio Cardoso",
        "latitude": -12.4335,
        "longitude": -39.1176,
        "codigo_uf": 29,
        "fuso_horario": "America\/Sao_Paulo"
    },
    {
        "geocodigo": 4201208,
        "municipio": "Antônio Carlos",
        "latitude": -27.5191,
        "longitude": -48.766,
        "codigo_uf": 42,
        "fuso_horario": "America\/Sao_Paulo"
    },
    {
        "geocodigo": 3102902,
        "municipio": "Antônio Carlos",
        "latitude": -21.321,
        "longitude": -43.7451,
        "codigo_uf": 31,
        "fuso_horario": "America\/Sao_Paulo"
    },
    {
        "geocodigo": 3103009,
        "municipio": "Antônio Dias",
        "latitude": -19.6491,
        "longitude": -42.8732,
        "codigo_uf": 31,
        "fuso_horario": "America\/Sao_Paulo"
    },
    {
        "geocodigo": 2901809,
        "municipio": "Antônio Gonçalves",
        "latitude": -10.5767,
        "longitude": -40.2785,
        "codigo_uf": 29,
        "fuso_horario": "America\/Sao_Paulo"
    },
    {
        "geocodigo": 5000906,
        "municipio": "Antônio João",
        "latitude": -22.1927,
        "longitude": -55.9517,
        "codigo_uf": 50,
        "fuso_horario": "America\/Porto_Velho"
    },
    {
        "geocodigo": 2400901,
        "municipio": "Antônio Martins",
        "latitude": -6.21367,
        "longitude": -37.8834,
        "codigo_uf": 24,
        "fuso_horario": "America\/Sao_Paulo"
    },
    {
        "geocodigo": 4101309,
        "municipio": "Antônio Olinto",
        "latitude": -25.9804,
        "longitude": -50.1972,
        "codigo_uf": 41,
        "fuso_horario": "America\/Sao_Paulo"
    },
    {
        "geocodigo": 4300802,
        "municipio": "Antônio Prado",
        "latitude": -28.8565,
        "longitude": -51.2883,
        "codigo_uf": 43,
        "fuso_horario": "America\/Sao_Paulo"
    },
    {
        "geocodigo": 3103108,
        "municipio": "Antônio Prado de Minas",
        "latitude": -21.0192,
        "longitude": -42.1109,
        "codigo_uf": 31,
        "fuso_horario": "America\/Sao_Paulo"
    },
    {
        "geocodigo": 2500775,
        "municipio": "Aparecida",
        "latitude": -6.78466,
        "longitude": -38.0803,
        "codigo_uf": 25,
        "fuso_horario": "America\/Sao_Paulo"
    },
    {
        "geocodigo": 3502507,
        "municipio": "Aparecida",
        "latitude": -22.8495,
        "longitude": -45.2325,
        "codigo_uf": 35,
        "fuso_horario": "America\/Sao_Paulo"
    },
    {
        "geocodigo": 3502606,
        "municipio": "Aparecida d'Oeste",
        "latitude": -20.4487,
        "longitude": -50.8835,
        "codigo_uf": 35,
        "fuso_horario": "America\/Sao_Paulo"
    },
    {
        "geocodigo": 5201405,
        "municipio": "Aparecida de Goiânia",
        "latitude": -16.8198,
        "longitude": -49.2469,
        "codigo_uf": 52,
        "fuso_horario": "America\/Sao_Paulo"
    },
    {
        "geocodigo": 5201454,
        "municipio": "Aparecida do Rio Doce",
        "latitude": -18.2941,
        "longitude": -51.1516,
        "codigo_uf": 52,
        "fuso_horario": "America\/Sao_Paulo"
    },
    {
        "geocodigo": 1701101,
        "municipio": "Aparecida do Rio Negro",
        "latitude": -9.94139,
        "longitude": -47.9638,
        "codigo_uf": 17,
        "fuso_horario": "America\/Sao_Paulo"
    },
    {
        "geocodigo": 5001003,
        "municipio": "Aparecida do Taboado",
        "latitude": -20.0873,
        "longitude": -51.0961,
        "codigo_uf": 50,
        "fuso_horario": "America\/Porto_Velho"
    },
    {
        "geocodigo": 3300159,
        "municipio": "Aperibé",
        "latitude": -21.6252,
        "longitude": -42.1017,
        "codigo_uf": 33,
        "fuso_horario": "America\/Sao_Paulo"
    },
    {
        "geocodigo": 3200508,
        "municipio": "Apiacá",
        "latitude": -21.1523,
        "longitude": -41.5693,
        "codigo_uf": 32,
        "fuso_horario": "America\/Sao_Paulo"
    },
    {
        "geocodigo": 5100805,
        "municipio": "Apiacás",
        "latitude": -9.53981,
        "longitude": -57.4587,
        "codigo_uf": 51,
        "fuso_horario": "America\/Porto_Velho"
    },
    {
        "geocodigo": 3502705,
        "municipio": "Apiaí",
        "latitude": -24.5108,
        "longitude": -48.8443,
        "codigo_uf": 35,
        "fuso_horario": "America\/Sao_Paulo"
    },
    {
        "geocodigo": 2100832,
        "municipio": "Apicum-Açu",
        "latitude": -1.45862,
        "longitude": -45.0864,
        "codigo_uf": 21,
        "fuso_horario": "America\/Sao_Paulo"
    },
    {
        "geocodigo": 4201257,
        "municipio": "Apiúna",
        "latitude": -27.0375,
        "longitude": -49.3885,
        "codigo_uf": 42,
        "fuso_horario": "America\/Sao_Paulo"
    },
    {
        "geocodigo": 2401008,
        "municipio": "Apodi",
        "latitude": -5.65349,
        "longitude": -37.7946,
        "codigo_uf": 24,
        "fuso_horario": "America\/Sao_Paulo"
    },
    {
        "geocodigo": 2901908,
        "municipio": "Aporá",
        "latitude": -11.6577,
        "longitude": -38.0814,
        "codigo_uf": 29,
        "fuso_horario": "America\/Sao_Paulo"
    },
    {
        "geocodigo": 5201504,
        "municipio": "Aporé",
        "latitude": -18.9607,
        "longitude": -51.9232,
        "codigo_uf": 52,
        "fuso_horario": "America\/Sao_Paulo"
    },
    {
        "geocodigo": 2901957,
        "municipio": "Apuarema",
        "latitude": -13.8542,
        "longitude": -39.7501,
        "codigo_uf": 29,
        "fuso_horario": "America\/Sao_Paulo"
    },
    {
        "geocodigo": 4101408,
        "municipio": "Apucarana",
        "latitude": -23.55,
        "longitude": -51.4635,
        "codigo_uf": 41,
        "fuso_horario": "America\/Sao_Paulo"
    },
    {
        "geocodigo": 1300144,
        "municipio": "Apuí",
        "latitude": -7.19409,
        "longitude": -59.896,
        "codigo_uf": 13,
        "fuso_horario": "America\/Porto_Velho"
    },
    {
        "geocodigo": 2300903,
        "municipio": "Apuiarés",
        "latitude": -3.94506,
        "longitude": -39.4359,
        "codigo_uf": 23,
        "fuso_horario": "America\/Sao_Paulo"
    },
    {
        "geocodigo": 2800209,
        "municipio": "Aquidabã",
        "latitude": -10.278,
        "longitude": -37.0148,
        "codigo_uf": 28,
        "fuso_horario": "America\/Sao_Paulo"
    },
    {
        "geocodigo": 5001102,
        "municipio": "Aquidauana",
        "latitude": -20.4666,
        "longitude": -55.7868,
        "codigo_uf": 50,
        "fuso_horario": "America\/Porto_Velho"
    },
    {
        "geocodigo": 2301000,
        "municipio": "Aquiraz",
        "latitude": -3.89929,
        "longitude": -38.3896,
        "codigo_uf": 23,
        "fuso_horario": "America\/Sao_Paulo"
    },
    {
        "geocodigo": 4201273,
        "municipio": "Arabutã",
        "latitude": -27.1587,
        "longitude": -52.1423,
        "codigo_uf": 42,
        "fuso_horario": "America\/Sao_Paulo"
    },
    {
        "geocodigo": 2500809,
        "municipio": "Araçagi",
        "latitude": -6.84374,
        "longitude": -35.3737,
        "codigo_uf": 25,
        "fuso_horario": "America\/Sao_Paulo"
    },
    {
        "geocodigo": 3103207,
        "municipio": "Araçaí",
        "latitude": -19.1955,
        "longitude": -44.2493,
        "codigo_uf": 31,
        "fuso_horario": "America\/Sao_Paulo"
    },
    {
        "geocodigo": 2800308,
        "municipio": "Aracaju",
        "latitude": -10.9091,
        "longitude": -37.0677,
        "codigo_uf": 28,
        "fuso_horario": "America\/Sao_Paulo"
    },
    {
        "geocodigo": 3502754,
        "municipio": "Araçariguama",
        "latitude": -23.4366,
        "longitude": -47.0608,
        "codigo_uf": 35,
        "fuso_horario": "America\/Sao_Paulo"
    },
    {
        "geocodigo": 2902054,
        "municipio": "Araças",
        "latitude": -12.22,
        "longitude": -38.2027,
        "codigo_uf": 29,
        "fuso_horario": "America\/Sao_Paulo"
    },
    {
        "geocodigo": 2301109,
        "municipio": "Aracati",
        "latitude": -4.55826,
        "longitude": -37.7679,
        "codigo_uf": 23,
        "fuso_horario": "America\/Sao_Paulo"
    },
    {
        "geocodigo": 2902005,
        "municipio": "Aracatu",
        "latitude": -14.428,
        "longitude": -41.4648,
        "codigo_uf": 29,
        "fuso_horario": "America\/Sao_Paulo"
    },
    {
        "geocodigo": 3502804,
        "municipio": "Araçatuba",
        "latitude": -21.2076,
        "longitude": -50.4401,
        "codigo_uf": 35,
        "fuso_horario": "America\/Sao_Paulo"
    },
    {
        "geocodigo": 2902104,
        "municipio": "Araci",
        "latitude": -11.3253,
        "longitude": -38.9584,
        "codigo_uf": 29,
        "fuso_horario": "America\/Sao_Paulo"
    },
    {
        "geocodigo": 3103306,
        "municipio": "Aracitaba",
        "latitude": -21.3446,
        "longitude": -43.3736,
        "codigo_uf": 31,
        "fuso_horario": "America\/Sao_Paulo"
    },
    {
        "geocodigo": 2601052,
        "municipio": "Araçoiaba",
        "latitude": -7.78391,
        "longitude": -35.0809,
        "codigo_uf": 26,
        "fuso_horario": "America\/Sao_Paulo"
    },
    {
        "geocodigo": 2301208,
        "municipio": "Aracoiaba",
        "latitude": -4.36872,
        "longitude": -38.8125,
        "codigo_uf": 23,
        "fuso_horario": "America\/Sao_Paulo"
    },
    {
        "geocodigo": 3502903,
        "municipio": "Araçoiaba da Serra",
        "latitude": -23.5029,
        "longitude": -47.6166,
        "codigo_uf": 35,
        "fuso_horario": "America\/Sao_Paulo"
    },
    {
        "geocodigo": 3200607,
        "municipio": "Aracruz",
        "latitude": -19.82,
        "longitude": -40.2764,
        "codigo_uf": 32,
        "fuso_horario": "America\/Sao_Paulo"
    },
    {
        "geocodigo": 5201603,
        "municipio": "Araçu",
        "latitude": -16.3563,
        "longitude": -49.6804,
        "codigo_uf": 52,
        "fuso_horario": "America\/Sao_Paulo"
    },
    {
        "geocodigo": 3103405,
        "municipio": "Araçuaí",
        "latitude": -16.8523,
        "longitude": -42.0637,
        "codigo_uf": 31,
        "fuso_horario": "America\/Sao_Paulo"
    },
    {
        "geocodigo": 5201702,
        "municipio": "Aragarças",
        "latitude": -15.8955,
        "longitude": -52.2372,
        "codigo_uf": 52,
        "fuso_horario": "America\/Sao_Paulo"
    },
    {
        "geocodigo": 5201801,
        "municipio": "Aragoiânia",
        "latitude": -16.9087,
        "longitude": -49.4476,
        "codigo_uf": 52,
        "fuso_horario": "America\/Sao_Paulo"
    },
    {
        "geocodigo": 1701309,
        "municipio": "Aragominas",
        "latitude": -7.16005,
        "longitude": -48.5291,
        "codigo_uf": 17,
        "fuso_horario": "America\/Sao_Paulo"
    },
    {
        "geocodigo": 1701903,
        "municipio": "Araguacema",
        "latitude": -8.80755,
        "longitude": -49.5569,
        "codigo_uf": 17,
        "fuso_horario": "America\/Sao_Paulo"
    },
    {
        "geocodigo": 1702000,
        "municipio": "Araguaçu",
        "latitude": -12.9289,
        "longitude": -49.8231,
        "codigo_uf": 17,
        "fuso_horario": "America\/Sao_Paulo"
    },
    {
        "geocodigo": 5101001,
        "municipio": "Araguaiana",
        "latitude": -15.7291,
        "longitude": -51.8341,
        "codigo_uf": 51,
        "fuso_horario": "America\/Porto_Velho"
    },
    {
        "geocodigo": 1702109,
        "municipio": "Araguaína",
        "latitude": -7.19238,
        "longitude": -48.2044,
        "codigo_uf": 17,
        "fuso_horario": "America\/Sao_Paulo"
    },
    {
        "geocodigo": 5101209,
        "municipio": "Araguainha",
        "latitude": -16.857,
        "longitude": -53.0318,
        "codigo_uf": 51,
        "fuso_horario": "America\/Porto_Velho"
    },
    {
        "geocodigo": 1702158,
        "municipio": "Araguanã",
        "latitude": -6.58225,
        "longitude": -48.6395,
        "codigo_uf": 17,
        "fuso_horario": "America\/Sao_Paulo"
    },
    {
        "geocodigo": 2100873,
        "municipio": "Araguanã",
        "latitude": -2.94644,
        "longitude": -45.6589,
        "codigo_uf": 21,
        "fuso_horario": "America\/Sao_Paulo"
    },
    {
        "geocodigo": 5202155,
        "municipio": "Araguapaz",
        "latitude": -15.0909,
        "longitude": -50.6315,
        "codigo_uf": 52,
        "fuso_horario": "America\/Sao_Paulo"
    },
    {
        "geocodigo": 3103504,
        "municipio": "Araguari",
        "latitude": -18.6456,
        "longitude": -48.1934,
        "codigo_uf": 31,
        "fuso_horario": "America\/Sao_Paulo"
    },
    {
        "geocodigo": 1702208,
        "municipio": "Araguatins",
        "latitude": -5.64659,
        "longitude": -48.1232,
        "codigo_uf": 17,
        "fuso_horario": "America\/Sao_Paulo"
    },
    {
        "geocodigo": 2100907,
        "municipio": "Araioses",
        "latitude": -2.89091,
        "longitude": -41.905,
        "codigo_uf": 21,
        "fuso_horario": "America\/Sao_Paulo"
    },
    {
        "geocodigo": 5001243,
        "municipio": "Aral Moreira",
        "latitude": -22.9385,
        "longitude": -55.6334,
        "codigo_uf": 50,
        "fuso_horario": "America\/Porto_Velho"
    },
    {
        "geocodigo": 2902203,
        "municipio": "Aramari",
        "latitude": -12.0884,
        "longitude": -38.4969,
        "codigo_uf": 29,
        "fuso_horario": "America\/Sao_Paulo"
    },
    {
        "geocodigo": 4300851,
        "municipio": "Arambaré",
        "latitude": -30.9092,
        "longitude": -51.5046,
        "codigo_uf": 43,
        "fuso_horario": "America\/Sao_Paulo"
    },
    {
        "geocodigo": 2100956,
        "municipio": "Arame",
        "latitude": -4.88347,
        "longitude": -46.0032,
        "codigo_uf": 21,
        "fuso_horario": "America\/Sao_Paulo"
    },
    {
        "geocodigo": 3503000,
        "municipio": "Aramina",
        "latitude": -20.0882,
        "longitude": -47.7873,
        "codigo_uf": 35,
        "fuso_horario": "America\/Sao_Paulo"
    },
    {
        "geocodigo": 3503109,
        "municipio": "Arandu",
        "latitude": -23.1386,
        "longitude": -49.0487,
        "codigo_uf": 35,
        "fuso_horario": "America\/Sao_Paulo"
    },
    {
        "geocodigo": 3103603,
        "municipio": "Arantina",
        "latitude": -21.9102,
        "longitude": -44.2555,
        "codigo_uf": 31,
        "fuso_horario": "America\/Sao_Paulo"
    },
    {
        "geocodigo": 3503158,
        "municipio": "Arapeí",
        "latitude": -22.6717,
        "longitude": -44.4441,
        "codigo_uf": 35,
        "fuso_horario": "America\/Sao_Paulo"
    },
    {
        "geocodigo": 2700300,
        "municipio": "Arapiraca",
        "latitude": -9.75487,
        "longitude": -36.6615,
        "codigo_uf": 27,
        "fuso_horario": "America\/Sao_Paulo"
    },
    {
        "geocodigo": 1702307,
        "municipio": "Arapoema",
        "latitude": -7.65463,
        "longitude": -49.0637,
        "codigo_uf": 17,
        "fuso_horario": "America\/Sao_Paulo"
    },
    {
        "geocodigo": 3103702,
        "municipio": "Araponga",
        "latitude": -20.6686,
        "longitude": -42.5178,
        "codigo_uf": 31,
        "fuso_horario": "America\/Sao_Paulo"
    },
    {
        "geocodigo": 4101507,
        "municipio": "Arapongas",
        "latitude": -23.4153,
        "longitude": -51.4259,
        "codigo_uf": 41,
        "fuso_horario": "America\/Sao_Paulo"
    },
    {
        "geocodigo": 3103751,
        "municipio": "Araporã",
        "latitude": -18.4357,
        "longitude": -49.1847,
        "codigo_uf": 31,
        "fuso_horario": "America\/Sao_Paulo"
    },
    {
        "geocodigo": 4101606,
        "municipio": "Arapoti",
        "latitude": -24.1548,
        "longitude": -49.8285,
        "codigo_uf": 41,
        "fuso_horario": "America\/Sao_Paulo"
    },
    {
        "geocodigo": 4101655,
        "municipio": "Arapuã",
        "latitude": -24.3132,
        "longitude": -51.7856,
        "codigo_uf": 41,
        "fuso_horario": "America\/Sao_Paulo"
    },
    {
        "geocodigo": 3103801,
        "municipio": "Arapuá",
        "latitude": -19.0268,
        "longitude": -46.1484,
        "codigo_uf": 31,
        "fuso_horario": "America\/Sao_Paulo"
    },
    {
        "geocodigo": 5101258,
        "municipio": "Araputanga",
        "latitude": -15.4641,
        "longitude": -58.3425,
        "codigo_uf": 51,
        "fuso_horario": "America\/Porto_Velho"
    },
    {
        "geocodigo": 4201307,
        "municipio": "Araquari",
        "latitude": -26.3754,
        "longitude": -48.7188,
        "codigo_uf": 42,
        "fuso_horario": "America\/Sao_Paulo"
    },
    {
        "geocodigo": 2500908,
        "municipio": "Arara",
        "latitude": -6.82813,
        "longitude": -35.7552,
        "codigo_uf": 25,
        "fuso_horario": "America\/Sao_Paulo"
    },
    {
        "geocodigo": 4201406,
        "municipio": "Araranguá",
        "latitude": -28.9356,
        "longitude": -49.4918,
        "codigo_uf": 42,
        "fuso_horario": "America\/Sao_Paulo"
    },
    {
        "geocodigo": 3503208,
        "municipio": "Araraquara",
        "latitude": -21.7845,
        "longitude": -48.178,
        "codigo_uf": 35,
        "fuso_horario": "America\/Sao_Paulo"
    },
    {
        "geocodigo": 3503307,
        "municipio": "Araras",
        "latitude": -22.3572,
        "longitude": -47.3842,
        "codigo_uf": 35,
        "fuso_horario": "America\/Sao_Paulo"
    },
    {
        "geocodigo": 2301257,
        "municipio": "Ararendá",
        "latitude": -4.74567,
        "longitude": -40.831,
        "codigo_uf": 23,
        "fuso_horario": "America\/Sao_Paulo"
    },
    {
        "geocodigo": 2101004,
        "municipio": "Arari",
        "latitude": -3.45214,
        "longitude": -44.7665,
        "codigo_uf": 21,
        "fuso_horario": "America\/Sao_Paulo"
    },
    {
        "geocodigo": 4300877,
        "municipio": "Araricá",
        "latitude": -29.6168,
        "longitude": -50.9291,
        "codigo_uf": 43,
        "fuso_horario": "America\/Sao_Paulo"
    },
    {
        "geocodigo": 2301307,
        "municipio": "Araripe",
        "latitude": -7.21319,
        "longitude": -40.1359,
        "codigo_uf": 23,
        "fuso_horario": "America\/Sao_Paulo"
    },
    {
        "geocodigo": 2601102,
        "municipio": "Araripina",
        "latitude": -7.57073,
        "longitude": -40.494,
        "codigo_uf": 26,
        "fuso_horario": "America\/Sao_Paulo"
    },
    {
        "geocodigo": 3300209,
        "municipio": "Araruama",
        "latitude": -22.8697,
        "longitude": -42.3326,
        "codigo_uf": 33,
        "fuso_horario": "America\/Sao_Paulo"
    },
    {
        "geocodigo": 4101705,
        "municipio": "Araruna",
        "latitude": -23.9315,
        "longitude": -52.5021,
        "codigo_uf": 41,
        "fuso_horario": "America\/Sao_Paulo"
    },
    {
        "geocodigo": 2501005,
        "municipio": "Araruna",
        "latitude": -6.54848,
        "longitude": -35.7498,
        "codigo_uf": 25,
        "fuso_horario": "America\/Sao_Paulo"
    },
    {
        "geocodigo": 2902252,
        "municipio": "Arataca",
        "latitude": -15.2651,
        "longitude": -39.419,
        "codigo_uf": 29,
        "fuso_horario": "America\/Sao_Paulo"
    },
    {
        "geocodigo": 4300901,
        "municipio": "Aratiba",
        "latitude": -27.3978,
        "longitude": -52.2975,
        "codigo_uf": 43,
        "fuso_horario": "America\/Sao_Paulo"
    },
    {
        "geocodigo": 2301406,
        "municipio": "Aratuba",
        "latitude": -4.41229,
        "longitude": -39.0471,
        "codigo_uf": 23,
        "fuso_horario": "America\/Sao_Paulo"
    },
    {
        "geocodigo": 2902302,
        "municipio": "Aratuípe",
        "latitude": -13.0716,
        "longitude": -39.0038,
        "codigo_uf": 29,
        "fuso_horario": "America\/Sao_Paulo"
    },
    {
        "geocodigo": 2800407,
        "municipio": "Arauá",
        "latitude": -11.2614,
        "longitude": -37.6201,
        "codigo_uf": 28,
        "fuso_horario": "America\/Sao_Paulo"
    },
    {
        "geocodigo": 4101804,
        "municipio": "Araucária",
        "latitude": -25.5859,
        "longitude": -49.4047,
        "codigo_uf": 41,
        "fuso_horario": "America\/Sao_Paulo"
    },
    {
        "geocodigo": 3103900,
        "municipio": "Araújos",
        "latitude": -19.9405,
        "longitude": -45.1671,
        "codigo_uf": 31,
        "fuso_horario": "America\/Sao_Paulo"
    },
    {
        "geocodigo": 3104007,
        "municipio": "Araxá",
        "latitude": -19.5902,
        "longitude": -46.9438,
        "codigo_uf": 31,
        "fuso_horario": "America\/Sao_Paulo"
    },
    {
        "geocodigo": 3104106,
        "municipio": "Arceburgo",
        "latitude": -21.359,
        "longitude": -46.9401,
        "codigo_uf": 31,
        "fuso_horario": "America\/Sao_Paulo"
    },
    {
        "geocodigo": 3503356,
        "municipio": "Arco-Íris",
        "latitude": -21.7728,
        "longitude": -50.466,
        "codigo_uf": 35,
        "fuso_horario": "America\/Sao_Paulo"
    },
    {
        "geocodigo": 3104205,
        "municipio": "Arcos",
        "latitude": -20.2863,
        "longitude": -45.5373,
        "codigo_uf": 31,
        "fuso_horario": "America\/Sao_Paulo"
    },
    {
        "geocodigo": 2601201,
        "municipio": "Arcoverde",
        "latitude": -8.41519,
        "longitude": -37.0577,
        "codigo_uf": 26,
        "fuso_horario": "America\/Sao_Paulo"
    },
    {
        "geocodigo": 3104304,
        "municipio": "Areado",
        "latitude": -21.3572,
        "longitude": -46.1421,
        "codigo_uf": 31,
        "fuso_horario": "America\/Sao_Paulo"
    },
    {
        "geocodigo": 3300225,
        "municipio": "Areal",
        "latitude": -22.2283,
        "longitude": -43.1118,
        "codigo_uf": 33,
        "fuso_horario": "America\/Sao_Paulo"
    },
    {
        "geocodigo": 3503406,
        "municipio": "Arealva",
        "latitude": -22.031,
        "longitude": -48.9135,
        "codigo_uf": 35,
        "fuso_horario": "America\/Sao_Paulo"
    },
    {
        "geocodigo": 2501104,
        "municipio": "Areia",
        "latitude": -6.96396,
        "longitude": -35.6977,
        "codigo_uf": 25,
        "fuso_horario": "America\/Sao_Paulo"
    },
    {
        "geocodigo": 2401107,
        "municipio": "Areia Branca",
        "latitude": -4.95254,
        "longitude": -37.1252,
        "codigo_uf": 24,
        "fuso_horario": "America\/Sao_Paulo"
    },
    {
        "geocodigo": 2800506,
        "municipio": "Areia Branca",
        "latitude": -10.758,
        "longitude": -37.3251,
        "codigo_uf": 28,
        "fuso_horario": "America\/Sao_Paulo"
    },
    {
        "geocodigo": 2501153,
        "municipio": "Areia de Baraúnas",
        "latitude": -7.11702,
        "longitude": -36.9404,
        "codigo_uf": 25,
        "fuso_horario": "America\/Sao_Paulo"
    },
    {
        "geocodigo": 2501203,
        "municipio": "Areial",
        "latitude": -7.04789,
        "longitude": -35.9313,
        "codigo_uf": 25,
        "fuso_horario": "America\/Sao_Paulo"
    },
    {
        "geocodigo": 3503505,
        "municipio": "Areias",
        "latitude": -22.5786,
        "longitude": -44.6992,
        "codigo_uf": 35,
        "fuso_horario": "America\/Sao_Paulo"
    },
    {
        "geocodigo": 3503604,
        "municipio": "Areiópolis",
        "latitude": -22.6672,
        "longitude": -48.6681,
        "codigo_uf": 35,
        "fuso_horario": "America\/Sao_Paulo"
    },
    {
        "geocodigo": 5101308,
        "municipio": "Arenápolis",
        "latitude": -14.4472,
        "longitude": -56.8437,
        "codigo_uf": 51,
        "fuso_horario": "America\/Porto_Velho"
    },
    {
        "geocodigo": 5202353,
        "municipio": "Arenópolis",
        "latitude": -16.3837,
        "longitude": -51.5563,
        "codigo_uf": 52,
        "fuso_horario": "America\/Sao_Paulo"
    },
    {
        "geocodigo": 2401206,
        "municipio": "Arês",
        "latitude": -6.18831,
        "longitude": -35.1608,
        "codigo_uf": 24,
        "fuso_horario": "America\/Sao_Paulo"
    },
    {
        "geocodigo": 3104403,
        "municipio": "Argirita",
        "latitude": -21.6083,
        "longitude": -42.8292,
        "codigo_uf": 31,
        "fuso_horario": "America\/Sao_Paulo"
    },
    {
        "geocodigo": 3104452,
        "municipio": "Aricanduva",
        "latitude": -17.8666,
        "longitude": -42.5533,
        "codigo_uf": 31,
        "fuso_horario": "America\/Sao_Paulo"
    },
    {
        "geocodigo": 3104502,
        "municipio": "Arinos",
        "latitude": -15.9187,
        "longitude": -46.1043,
        "codigo_uf": 31,
        "fuso_horario": "America\/Sao_Paulo"
    },
    {
        "geocodigo": 5101407,
        "municipio": "Aripuanã",
        "latitude": -10.1723,
        "longitude": -59.4568,
        "codigo_uf": 51,
        "fuso_horario": "America\/Porto_Velho"
    },
    {
        "geocodigo": 1100023,
        "municipio": "Ariquemes",
        "latitude": -9.90571,
        "longitude": -63.0325,
        "codigo_uf": 11,
        "fuso_horario": "America\/Porto_Velho"
    },
    {
        "geocodigo": 3503703,
        "municipio": "Ariranha",
        "latitude": -21.1872,
        "longitude": -48.7904,
        "codigo_uf": 35,
        "fuso_horario": "America\/Sao_Paulo"
    },
    {
        "geocodigo": 4101853,
        "municipio": "Ariranha do Ivaí",
        "latitude": -24.3857,
        "longitude": -51.5839,
        "codigo_uf": 41,
        "fuso_horario": "America\/Sao_Paulo"
    },
    {
        "geocodigo": 3300233,
        "municipio": "Armação dos Búzios",
        "latitude": -22.7528,
        "longitude": -41.8846,
        "codigo_uf": 33,
        "fuso_horario": "America\/Sao_Paulo"
    },
    {
        "geocodigo": 4201505,
        "municipio": "Armazém",
        "latitude": -28.2448,
        "longitude": -49.0215,
        "codigo_uf": 42,
        "fuso_horario": "America\/Sao_Paulo"
    },
    {
        "geocodigo": 2301505,
        "municipio": "Arneiroz",
        "latitude": -6.3165,
        "longitude": -40.1653,
        "codigo_uf": 23,
        "fuso_horario": "America\/Sao_Paulo"
    },
    {
        "geocodigo": 2200905,
        "municipio": "Aroazes",
        "latitude": -6.11022,
        "longitude": -41.7822,
        "codigo_uf": 22,
        "fuso_horario": "America\/Sao_Paulo"
    },
    {
        "geocodigo": 2501302,
        "municipio": "Aroeiras",
        "latitude": -7.54473,
        "longitude": -35.7066,
        "codigo_uf": 25,
        "fuso_horario": "America\/Sao_Paulo"
    },
    {
        "geocodigo": 2200954,
        "municipio": "Aroeiras do Itaim",
        "latitude": -7.24502,
        "longitude": -41.5325,
        "codigo_uf": 22,
        "fuso_horario": "America\/Sao_Paulo"
    },
    {
        "geocodigo": 2201002,
        "municipio": "Arraial",
        "latitude": -6.65075,
        "longitude": -42.5418,
        "codigo_uf": 22,
        "fuso_horario": "America\/Sao_Paulo"
    },
    {
        "geocodigo": 3300258,
        "municipio": "Arraial do Cabo",
        "latitude": -22.9774,
        "longitude": -42.0267,
        "codigo_uf": 33,
        "fuso_horario": "America\/Sao_Paulo"
    },
    {
        "geocodigo": 1702406,
        "municipio": "Arraias",
        "latitude": -12.9287,
        "longitude": -46.9359,
        "codigo_uf": 17,
        "fuso_horario": "America\/Sao_Paulo"
    },
    {
        "geocodigo": 4301008,
        "municipio": "Arroio do Meio",
        "latitude": -29.4014,
        "longitude": -51.9557,
        "codigo_uf": 43,
        "fuso_horario": "America\/Sao_Paulo"
    },
    {
        "geocodigo": 4301073,
        "municipio": "Arroio do Padre",
        "latitude": -31.4389,
        "longitude": -52.4246,
        "codigo_uf": 43,
        "fuso_horario": "America\/Sao_Paulo"
    },
    {
        "geocodigo": 4301057,
        "municipio": "Arroio do Sal",
        "latitude": -29.5439,
        "longitude": -49.8895,
        "codigo_uf": 43,
        "fuso_horario": "America\/Sao_Paulo"
    },
    {
        "geocodigo": 4301206,
        "municipio": "Arroio do Tigre",
        "latitude": -29.3348,
        "longitude": -53.0966,
        "codigo_uf": 43,
        "fuso_horario": "America\/Sao_Paulo"
    },
    {
        "geocodigo": 4301107,
        "municipio": "Arroio dos Ratos",
        "latitude": -30.0875,
        "longitude": -51.7275,
        "codigo_uf": 43,
        "fuso_horario": "America\/Sao_Paulo"
    },
    {
        "geocodigo": 4301305,
        "municipio": "Arroio Grande",
        "latitude": -32.2327,
        "longitude": -53.0862,
        "codigo_uf": 43,
        "fuso_horario": "America\/Sao_Paulo"
    },
    {
        "geocodigo": 4201604,
        "municipio": "Arroio Trinta",
        "latitude": -26.9257,
        "longitude": -51.3407,
        "codigo_uf": 42,
        "fuso_horario": "America\/Sao_Paulo"
    },
    {
        "geocodigo": 3503802,
        "municipio": "Artur Nogueira",
        "latitude": -22.5727,
        "longitude": -47.1727,
        "codigo_uf": 35,
        "fuso_horario": "America\/Sao_Paulo"
    },
    {
        "geocodigo": 5202502,
        "municipio": "Aruanã",
        "latitude": -14.9166,
        "longitude": -51.075,
        "codigo_uf": 52,
        "fuso_horario": "America\/Sao_Paulo"
    },
    {
        "geocodigo": 3503901,
        "municipio": "Arujá",
        "latitude": -23.3965,
        "longitude": -46.32,
        "codigo_uf": 35,
        "fuso_horario": "America\/Sao_Paulo"
    },
    {
        "geocodigo": 4201653,
        "municipio": "Arvoredo",
        "latitude": -27.0748,
        "longitude": -52.4543,
        "codigo_uf": 42,
        "fuso_horario": "America\/Sao_Paulo"
    },
    {
        "geocodigo": 4301404,
        "municipio": "Arvorezinha",
        "latitude": -28.8737,
        "longitude": -52.1781,
        "codigo_uf": 43,
        "fuso_horario": "America\/Sao_Paulo"
    },
    {
        "geocodigo": 4201703,
        "municipio": "Ascurra",
        "latitude": -26.9548,
        "longitude": -49.3783,
        "codigo_uf": 42,
        "fuso_horario": "America\/Sao_Paulo"
    },
    {
        "geocodigo": 3503950,
        "municipio": "Aspásia",
        "latitude": -20.16,
        "longitude": -50.728,
        "codigo_uf": 35,
        "fuso_horario": "America\/Sao_Paulo"
    },
    {
        "geocodigo": 4101903,
        "municipio": "Assaí",
        "latitude": -23.3697,
        "longitude": -50.8459,
        "codigo_uf": 41,
        "fuso_horario": "America\/Sao_Paulo"
    },
    {
        "geocodigo": 2301604,
        "municipio": "Assaré",
        "latitude": -6.8669,
        "longitude": -39.8689,
        "codigo_uf": 23,
        "fuso_horario": "America\/Sao_Paulo"
    },
    {
        "geocodigo": 3504008,
        "municipio": "Assis",
        "latitude": -22.66,
        "longitude": -50.4183,
        "codigo_uf": 35,
        "fuso_horario": "America\/Sao_Paulo"
    },
    {
        "geocodigo": 1200054,
        "municipio": "Assis Brasil",
        "latitude": -10.9298,
        "longitude": -69.5738,
        "codigo_uf": 12,
        "fuso_horario": "America\/Rio_Branco"
    },
    {
        "geocodigo": 4102000,
        "municipio": "Assis Chateaubriand",
        "latitude": -24.4168,
        "longitude": -53.5213,
        "codigo_uf": 41,
        "fuso_horario": "America\/Sao_Paulo"
    },
    {
        "geocodigo": 2501351,
        "municipio": "Assunção",
        "latitude": -7.07231,
        "longitude": -36.725,
        "codigo_uf": 25,
        "fuso_horario": "America\/Sao_Paulo"
    },
    {
        "geocodigo": 2201051,
        "municipio": "Assunção do Piauí",
        "latitude": -5.865,
        "longitude": -41.0389,
        "codigo_uf": 22,
        "fuso_horario": "America\/Sao_Paulo"
    },
    {
        "geocodigo": 3104601,
        "municipio": "Astolfo Dutra",
        "latitude": -21.3184,
        "longitude": -42.8572,
        "codigo_uf": 31,
        "fuso_horario": "America\/Sao_Paulo"
    },
    {
        "geocodigo": 4102109,
        "municipio": "Astorga",
        "latitude": -23.2318,
        "longitude": -51.6668,
        "codigo_uf": 41,
        "fuso_horario": "America\/Sao_Paulo"
    },
    {
        "geocodigo": 4102208,
        "municipio": "Atalaia",
        "latitude": -23.1517,
        "longitude": -52.0551,
        "codigo_uf": 41,
        "fuso_horario": "America\/Sao_Paulo"
    },
    {
        "geocodigo": 2700409,
        "municipio": "Atalaia",
        "latitude": -9.5119,
        "longitude": -36.0086,
        "codigo_uf": 27,
        "fuso_horario": "America\/Sao_Paulo"
    },
    {
        "geocodigo": 1300201,
        "municipio": "Atalaia do Norte",
        "latitude": -4.37055,
        "longitude": -70.1967,
        "codigo_uf": 13,
        "fuso_horario": "America\/Rio_Branco"
    },
    {
        "geocodigo": 4201802,
        "municipio": "Atalanta",
        "latitude": -27.4219,
        "longitude": -49.7789,
        "codigo_uf": 42,
        "fuso_horario": "America\/Sao_Paulo"
    },
    {
        "geocodigo": 3104700,
        "municipio": "Ataléia",
        "latitude": -18.0438,
        "longitude": -41.1149,
        "codigo_uf": 31,
        "fuso_horario": "America\/Sao_Paulo"
    },
    {
        "geocodigo": 3504107,
        "municipio": "Atibaia",
        "latitude": -23.1171,
        "longitude": -46.5563,
        "codigo_uf": 35,
        "fuso_horario": "America\/Sao_Paulo"
    },
    {
        "geocodigo": 3200706,
        "municipio": "Atilio Vivacqua",
        "latitude": -20.913,
        "longitude": -41.1986,
        "codigo_uf": 32,
        "fuso_horario": "America\/Sao_Paulo"
    },
    {
        "geocodigo": 1702554,
        "municipio": "Augustinópolis",
        "latitude": -5.46863,
        "longitude": -47.8863,
        "codigo_uf": 17,
        "fuso_horario": "America\/Sao_Paulo"
    },
    {
        "geocodigo": 1500909,
        "municipio": "Augusto Corrêa",
        "latitude": -1.05109,
        "longitude": -46.6147,
        "codigo_uf": 15,
        "fuso_horario": "America\/Sao_Paulo"
    },
    {
        "geocodigo": 3104809,
        "municipio": "Augusto de Lima",
        "latitude": -18.0997,
        "longitude": -44.2655,
        "codigo_uf": 31,
        "fuso_horario": "America\/Sao_Paulo"
    },
    {
        "geocodigo": 4301503,
        "municipio": "Augusto Pestana",
        "latitude": -28.5172,
        "longitude": -53.9883,
        "codigo_uf": 43,
        "fuso_horario": "America\/Sao_Paulo"
    },
    {
        "geocodigo": 2401305,
        "municipio": "Augusto Severo (Campo Grande)",
        "latitude": -5.86206,
        "longitude": -37.3135,
        "codigo_uf": 24,
        "fuso_horario": "America\/Sao_Paulo"
    },
    {
        "geocodigo": 4301552,
        "municipio": "Áurea",
        "latitude": -27.6936,
        "longitude": -52.0505,
        "codigo_uf": 43,
        "fuso_horario": "America\/Sao_Paulo"
    },
    {
        "geocodigo": 2902401,
        "municipio": "Aurelino Leal",
        "latitude": -14.321,
        "longitude": -39.329,
        "codigo_uf": 29,
        "fuso_horario": "America\/Sao_Paulo"
    },
    {
        "geocodigo": 3504206,
        "municipio": "Auriflama",
        "latitude": -20.6836,
        "longitude": -50.5572,
        "codigo_uf": 35,
        "fuso_horario": "America\/Sao_Paulo"
    },
    {
        "geocodigo": 5202601,
        "municipio": "Aurilândia",
        "latitude": -16.6773,
        "longitude": -50.4641,
        "codigo_uf": 52,
        "fuso_horario": "America\/Sao_Paulo"
    },
    {
        "geocodigo": 2301703,
        "municipio": "Aurora",
        "latitude": -6.93349,
        "longitude": -38.9742,
        "codigo_uf": 23,
        "fuso_horario": "America\/Sao_Paulo"
    },
    {
        "geocodigo": 4201901,
        "municipio": "Aurora",
        "latitude": -27.3098,
        "longitude": -49.6295,
        "codigo_uf": 42,
        "fuso_horario": "America\/Sao_Paulo"
    },
    {
        "geocodigo": 1500958,
        "municipio": "Aurora do Pará",
        "latitude": -2.14898,
        "longitude": -47.5677,
        "codigo_uf": 15,
        "fuso_horario": "America\/Sao_Paulo"
    },
    {
        "geocodigo": 1702703,
        "municipio": "Aurora do Tocantins",
        "latitude": -12.7105,
        "longitude": -46.4076,
        "codigo_uf": 17,
        "fuso_horario": "America\/Sao_Paulo"
    },
    {
        "geocodigo": 1300300,
        "municipio": "Autazes",
        "latitude": -3.58574,
        "longitude": -59.1256,
        "codigo_uf": 13,
        "fuso_horario": "America\/Porto_Velho"
    },
    {
        "geocodigo": 3504305,
        "municipio": "Avaí",
        "latitude": -22.1514,
        "longitude": -49.3356,
        "codigo_uf": 35,
        "fuso_horario": "America\/Sao_Paulo"
    },
    {
        "geocodigo": 3504404,
        "municipio": "Avanhandava",
        "latitude": -21.4584,
        "longitude": -49.9509,
        "codigo_uf": 35,
        "fuso_horario": "America\/Sao_Paulo"
    },
    {
        "geocodigo": 3504503,
        "municipio": "Avaré",
        "latitude": -23.1067,
        "longitude": -48.9251,
        "codigo_uf": 35,
        "fuso_horario": "America\/Sao_Paulo"
    },
    {
        "geocodigo": 1501006,
        "municipio": "Aveiro",
        "latitude": -3.60841,
        "longitude": -55.3199,
        "codigo_uf": 15,
        "fuso_horario": "America\/Sao_Paulo"
    },
    {
        "geocodigo": 2201101,
        "municipio": "Avelino Lopes",
        "latitude": -10.1345,
        "longitude": -43.9563,
        "codigo_uf": 22,
        "fuso_horario": "America\/Sao_Paulo"
    },
    {
        "geocodigo": 5202809,
        "municipio": "Avelinópolis",
        "latitude": -16.4672,
        "longitude": -49.7579,
        "codigo_uf": 52,
        "fuso_horario": "America\/Sao_Paulo"
    },
    {
        "geocodigo": 2101103,
        "municipio": "Axixá",
        "latitude": -2.83939,
        "longitude": -44.062,
        "codigo_uf": 21,
        "fuso_horario": "America\/Sao_Paulo"
    },
    {
        "geocodigo": 1702901,
        "municipio": "Axixá do Tocantins",
        "latitude": -5.61275,
        "longitude": -47.7701,
        "codigo_uf": 17,
        "fuso_horario": "America\/Sao_Paulo"
    },
    {
        "geocodigo": 1703008,
        "municipio": "Babaçulândia",
        "latitude": -7.20923,
        "longitude": -47.7613,
        "codigo_uf": 17,
        "fuso_horario": "America\/Sao_Paulo"
    },
    {
        "geocodigo": 2101202,
        "municipio": "Bacabal",
        "latitude": -4.22447,
        "longitude": -44.7832,
        "codigo_uf": 21,
        "fuso_horario": "America\/Sao_Paulo"
    },
    {
        "geocodigo": 2101251,
        "municipio": "Bacabeira",
        "latitude": -2.96452,
        "longitude": -44.3164,
        "codigo_uf": 21,
        "fuso_horario": "America\/Sao_Paulo"
    },
    {
        "geocodigo": 2101301,
        "municipio": "Bacuri",
        "latitude": -1.6965,
        "longitude": -45.1328,
        "codigo_uf": 21,
        "fuso_horario": "America\/Sao_Paulo"
    },
    {
        "geocodigo": 2101350,
        "municipio": "Bacurituba",
        "latitude": -2.71,
        "longitude": -44.7329,
        "codigo_uf": 21,
        "fuso_horario": "America\/Sao_Paulo"
    },
    {
        "geocodigo": 3504602,
        "municipio": "Bady Bassitt",
        "latitude": -20.9197,
        "longitude": -49.4385,
        "codigo_uf": 35,
        "fuso_horario": "America\/Sao_Paulo"
    },
    {
        "geocodigo": 3104908,
        "municipio": "Baependi",
        "latitude": -21.957,
        "longitude": -44.8874,
        "codigo_uf": 31,
        "fuso_horario": "America\/Sao_Paulo"
    },
    {
        "geocodigo": 4301602,
        "municipio": "Bagé",
        "latitude": -31.3297,
        "longitude": -54.0999,
        "codigo_uf": 43,
        "fuso_horario": "America\/Sao_Paulo"
    },
    {
        "geocodigo": 1501105,
        "municipio": "Bagre",
        "latitude": -1.90057,
        "longitude": -50.1987,
        "codigo_uf": 15,
        "fuso_horario": "America\/Sao_Paulo"
    },
    {
        "geocodigo": 2501401,
        "municipio": "Baía da Traição",
        "latitude": -6.69209,
        "longitude": -34.9381,
        "codigo_uf": 25,
        "fuso_horario": "America\/Sao_Paulo"
    },
    {
        "geocodigo": 2401404,
        "municipio": "Baía Formosa",
        "latitude": -6.37161,
        "longitude": -35.0033,
        "codigo_uf": 24,
        "fuso_horario": "America\/Sao_Paulo"
    },
    {
        "geocodigo": 2902500,
        "municipio": "Baianópolis",
        "latitude": -12.3016,
        "longitude": -44.5388,
        "codigo_uf": 29,
        "fuso_horario": "America\/Sao_Paulo"
    },
    {
        "geocodigo": 1501204,
        "municipio": "Baião",
        "latitude": -2.79021,
        "longitude": -49.6694,
        "codigo_uf": 15,
        "fuso_horario": "America\/Sao_Paulo"
    },
    {
        "geocodigo": 2902609,
        "municipio": "Baixa Grande",
        "latitude": -11.9519,
        "longitude": -40.169,
        "codigo_uf": 29,
        "fuso_horario": "America\/Sao_Paulo"
    },
    {
        "geocodigo": 2201150,
        "municipio": "Baixa Grande do Ribeiro",
        "latitude": -7.84903,
        "longitude": -45.219,
        "codigo_uf": 22,
        "fuso_horario": "America\/Sao_Paulo"
    },
    {
        "geocodigo": 2301802,
        "municipio": "Baixio",
        "latitude": -6.71945,
        "longitude": -38.7134,
        "codigo_uf": 23,
        "fuso_horario": "America\/Sao_Paulo"
    },
    {
        "geocodigo": 3200805,
        "municipio": "Baixo Guandu",
        "latitude": -19.5213,
        "longitude": -41.0109,
        "codigo_uf": 32,
        "fuso_horario": "America\/Sao_Paulo"
    },
    {
        "geocodigo": 3504701,
        "municipio": "Balbinos",
        "latitude": -21.8963,
        "longitude": -49.3619,
        "codigo_uf": 35,
        "fuso_horario": "America\/Sao_Paulo"
    },
    {
        "geocodigo": 3105004,
        "municipio": "Baldim",
        "latitude": -19.2832,
        "longitude": -43.9613,
        "codigo_uf": 31,
        "fuso_horario": "America\/Sao_Paulo"
    },
    {
        "geocodigo": 5203104,
        "municipio": "Baliza",
        "latitude": -16.1966,
        "longitude": -52.5393,
        "codigo_uf": 52,
        "fuso_horario": "America\/Sao_Paulo"
    },
    {
        "geocodigo": 4201950,
        "municipio": "Balneário Arroio do Silva",
        "latitude": -28.9806,
        "longitude": -49.4237,
        "codigo_uf": 42,
        "fuso_horario": "America\/Sao_Paulo"
    },
    {
        "geocodigo": 4202057,
        "municipio": "Balneário Barra do Sul",
        "latitude": -26.4597,
        "longitude": -48.6123,
        "codigo_uf": 42,
        "fuso_horario": "America\/Sao_Paulo"
    },
    {
        "geocodigo": 4202008,
        "municipio": "Balneário Camboriú",
        "latitude": -26.9926,
        "longitude": -48.6352,
        "codigo_uf": 42,
        "fuso_horario": "America\/Sao_Paulo"
    },
    {
        "geocodigo": 4202073,
        "municipio": "Balneário Gaivota",
        "latitude": -29.1527,
        "longitude": -49.5841,
        "codigo_uf": 42,
        "fuso_horario": "America\/Sao_Paulo"
    },
    {
        "geocodigo": 4212809,
        "municipio": "Balneário Piçarras",
        "latitude": -26.7639,
        "longitude": -48.6717,
        "codigo_uf": 42,
        "fuso_horario": "America\/Sao_Paulo"
    },
    {
        "geocodigo": 4301636,
        "municipio": "Balneário Pinhal",
        "latitude": -30.2419,
        "longitude": -50.2337,
        "codigo_uf": 43,
        "fuso_horario": "America\/Sao_Paulo"
    },
    {
        "geocodigo": 4220000,
        "municipio": "Balneário Rincão",
        "latitude": -28.8314,
        "longitude": -49.2352,
        "codigo_uf": 42,
        "fuso_horario": "America\/Sao_Paulo"
    },
    {
        "geocodigo": 4102307,
        "municipio": "Balsa Nova",
        "latitude": -25.5804,
        "longitude": -49.6291,
        "codigo_uf": 41,
        "fuso_horario": "America\/Sao_Paulo"
    },
    {
        "geocodigo": 3504800,
        "municipio": "Bálsamo",
        "latitude": -20.7348,
        "longitude": -49.5865,
        "codigo_uf": 35,
        "fuso_horario": "America\/Sao_Paulo"
    },
    {
        "geocodigo": 2101400,
        "municipio": "Balsas",
        "latitude": -7.53214,
        "longitude": -46.0372,
        "codigo_uf": 21,
        "fuso_horario": "America\/Sao_Paulo"
    },
    {
        "geocodigo": 3105103,
        "municipio": "Bambuí",
        "latitude": -20.0166,
        "longitude": -45.9754,
        "codigo_uf": 31,
        "fuso_horario": "America\/Sao_Paulo"
    },
    {
        "geocodigo": 2301851,
        "municipio": "Banabuiú",
        "latitude": -5.30454,
        "longitude": -38.9132,
        "codigo_uf": 23,
        "fuso_horario": "America\/Sao_Paulo"
    },